address,addressCity,Zipcode,area,baths,beds,soldPrice,zestimate,latitude,longitude,livingArea,rentZestimate,daysOnZillow,homeType,median_income,bus_stops_1km,police_beat,restaurants_nearby,cafes_nearby,schools_nearby,parks_nearby,gyms_nearby,supermarkets_nearby,drive_to_uiuc_main_quad_min,drive_to_downtown_champaign_min,drive_to_carle_hospital_min,drive_to_memorial_stadium_min,drive_to_willard_airport_min
"818 Sedgegrass Dr, Champaign, IL 61822",Champaign,61822,1593,3.0,3.0,"$272,000",260000,40.1254,-88.30646,1593,2030,0,TOWNHOUSE,94712.0,29.0,14,0.0,0.0,0.0,2.0,0.0,0.0,14.583333333333334,11.466666666666667,15.8,15.466666666666667,15.333333333333334
"3204 Cypress Creek Rd, Champaign, IL 61822",Champaign,61822,3448,3.0,4.0,"$450,000",451900,40.07371,-88.29286,3448,3782,1,SINGLE_FAMILY,126495.0,17.0,24,6.0,0.0,1.0,3.0,0.0,0.0,16.066666666666666,14.2,16.566666666666666,11.716666666666667,7.45
"205 Buena Vista Dr, Champaign, IL 61820",Champaign,61820,1120,1.0,3.0,"$205,000",177400,40.100967,-88.24619,1120,1457,1,SINGLE_FAMILY,57140.0,17.0,22,20.0,4.0,5.0,7.0,3.0,0.0,6.616666666666666,5.066666666666666,7.766666666666667,4.216666666666667,12.166666666666666
"909 Westfield Dr, Champaign, IL 61821",Champaign,61821,1341,2.0,3.0,"$221,900",206700,40.10625,-88.28999,1341,1796,1,SINGLE_FAMILY,87298.0,23.0,24,9.0,2.0,3.0,6.0,1.0,0.0,11.6,9.383333333333333,12.75,10.533333333333333,12.0
"1918 Robert Dr, Champaign, IL 61821",Champaign,61821,1764,2.0,3.0,"$257,550",260400,40.09109,-88.26604,1764,2035,1,SINGLE_FAMILY,75385.0,45.0,23,3.0,1.0,11.0,2.0,0.0,0.0,11.566666666666666,9.35,12.7,7.666666666666667,9.433333333333334
"2105 Noel Dr, Champaign, IL 61821",Champaign,61821,1982,3.0,4.0,"$320,000",283000,40.08928,-88.26188,1982,2493,1,SINGLE_FAMILY,168646.0,34.0,23,3.0,1.0,12.0,2.0,1.0,0.0,10.466666666666667,8.25,11.6,6.566666666666666,9.483333333333333
"1702 Patricia Ct, Champaign, IL 61821",Champaign,61821,1425,2.0,3.0,"$225,500",224800,40.110886,-88.27455,1425,1300,1,MULTI_FAMILY,64439.0,27.0,23,20.0,7.0,8.0,3.0,4.0,0.0,8.783333333333333,6.583333333333333,9.933333333333334,9.05,11.133333333333333
"1202 Joanne Ln, Champaign, IL 61821",Champaign,61821,968,1.0,3.0,"$100,000",100000,40.131187,-88.26508,968,1326,4,SINGLE_FAMILY,59548.0,0.0,13,20.0,3.0,4.0,2.0,0.0,1.0,10.45,7.066666666666666,10.083333333333334,11.45,15.933333333333334
"1605 W Park Ave, Champaign, IL 61821",Champaign,61821,821,1.0,2.0,"$170,000",173600,40.11712,-88.27308,821,1193,4,SINGLE_FAMILY,73967.0,36.0,14,20.0,6.0,8.0,6.0,4.0,0.0,8.783333333333333,5.533333333333333,9.933333333333334,9.8,12.75
"5 Lincoln Ct, Champaign, IL 61821",Champaign,61821,3258,3.0,3.0,"$469,000",454200,40.09756,-88.26679,3258,2757,4,SINGLE_FAMILY,78888.0,37.0,23,7.0,4.0,12.0,3.0,0.0,0.0,10.266666666666667,8.083333333333334,11.533333333333333,6.666666666666667,10.416666666666666
"1005 Page Dr, Champaign, IL 61821",Champaign,61821,2328,3.0,4.0,"$358,000",366800,40.084885,-88.25948,2328,2410,4,SINGLE_FAMILY,168646.0,41.0,23,4.0,0.0,10.0,4.0,1.0,0.0,11.2,8.983333333333333,12.216666666666667,7.383333333333334,9.216666666666667
"709 Lake Falls Blvd, Savoy, IL 61874",Savoy,61874,2822,5.0,5.0,"$724,000",724100,40.0413,-88.239006,2822,4044,4,SINGLE_FAMILY,161012.0,0.0,,0.0,0.0,0.0,0.0,0.0,0.0,14.05,13.966666666666667,13.266666666666667,8.416666666666666,8.45
"1604 W Washington St, Champaign, IL 61821",Champaign,61821,1362,3.0,3.0,"$210,000",210100,40.120373,-88.27288,1362,1877,5,SINGLE_FAMILY,-666666666.0,40.0,14,20.0,4.0,4.0,6.0,4.0,0.0,9.433333333333334,6.183333333333334,10.583333333333334,10.45,13.066666666666666
"1008 W Healey St, Champaign, IL 61821",Champaign,61821,2398,3.0,4.0,"$399,900",400000,40.112007,-88.26098,2398,1971,5,SINGLE_FAMILY,64439.0,40.0,23,2.0,0.0,6.0,5.0,2.0,0.0,6.966666666666667,4.75,8.1,7.633333333333334,12.916666666666666
"1514 Lincolnwood Dr, Urbana, IL 61802",Urbana,61802,1421,1.0,4.0,"$110,000",110000,40.099785,-88.18476,1421,1721,5,SINGLE_FAMILY,55684.0,44.0,,7.0,1.0,5.0,4.0,3.0,1.0,11.516666666666667,13.316666666666666,7.25,6.866666666666666,17.483333333333334
"2705 E Main St, Urbana, IL 61802",Urbana,61802,1679,3.0,4.0,"$236,000",236100,40.112312,-88.171234,1679,2415,6,SINGLE_FAMILY,54583.0,18.0,,4.0,0.0,2.0,2.0,0.0,1.0,10.2,12.266666666666667,6.166666666666667,10.083333333333334,18.7
"305 W John St, Champaign, IL 61820",Champaign,61820,1105,1.0,3.0,"$227,000",227100,40.108757,-88.24746,1105,1695,6,SINGLE_FAMILY,64375.0,63.0,22,20.0,6.0,6.0,10.0,4.0,1.0,5.966666666666667,3.6333333333333333,7.116666666666666,5.566666666666666,13.483333333333333
"2612 Valkar Ln, Champaign, IL 61822",Champaign,61822,2030,4.0,3.0,"$220,000",220100,40.067802,-88.29053,2030,2879,7,SINGLE_FAMILY,126495.0,8.0,,2.0,0.0,1.0,0.0,0.0,0.0,15.0,13.533333333333333,15.483333333333333,10.633333333333333,6.216666666666667
"1808 Garden Hills Dr, Champaign, IL 61820",Champaign,61820,1086,1.0,3.0,"$110,000",110000,40.135223,-88.27255,1086,1364,7,SINGLE_FAMILY,59548.0,38.0,13,5.0,1.0,2.0,2.0,0.0,0.0,11.866666666666667,8.733333333333333,11.05,12.866666666666667,15.3
"1508 W University Ave, Champaign, IL 61821",Champaign,61821,2225,3.0,4.0,"$385,000",385100,40.116695,-88.271164,2225,2551,7,SINGLE_FAMILY,73967.0,37.0,14,20.0,6.0,7.0,6.0,4.0,0.0,8.05,4.783333333333333,9.2,9.066666666666666,12.8
"202 W Beardsley Ave, Champaign, IL 61820",Champaign,61820,1440,3.0,3.0,"$90,000",90000,40.12666,-88.245445,1440,1773,7,SINGLE_FAMILY,43346.0,34.0,12,19.0,0.0,11.0,10.0,3.0,0.0,7.5,3.2333333333333334,7.666666666666667,9.916666666666666,16.95
"606 S Elm St, Champaign, IL 61820",Champaign,61820,1393,1.0,3.0,"$235,000",235100,40.10948,-88.24972,1393,1688,7,SINGLE_FAMILY,43292.0,60.0,22,20.0,6.0,6.0,8.0,3.0,1.0,6.416666666666667,4.083333333333333,7.633333333333334,6.633333333333334,13.616666666666667
"1610 Cornell Dr, Champaign, IL 61821",Champaign,61821,1660,2.0,3.0,"$230,000",230100,40.103516,-88.27369,1660,1732,7,SINGLE_FAMILY,105607.0,35.0,23,11.0,4.0,10.0,8.0,1.0,0.0,10.516666666666667,8.3,11.666666666666666,8.266666666666667,10.45
"1802 Meadow Dr, Champaign, IL 61821",Champaign,61821,1481,2.0,4.0,"$223,000",223100,40.10014,-88.27687,1481,1774,7,SINGLE_FAMILY,-666666666.0,35.0,24,10.0,4.0,7.0,9.0,0.0,0.0,10.233333333333333,8.016666666666667,11.383333333333333,7.45,8.9
"1814 Meadow Dr, Champaign, IL 61820",Champaign,61820,824,1.0,2.0,"$115,000",115000,40.09961,-88.27768,824,1108,7,SINGLE_FAMILY,-666666666.0,35.0,24,9.0,3.0,7.0,9.0,0.0,0.0,10.433333333333334,8.216666666666667,11.566666666666666,7.65,9.1
"3104 Kimberly Dr, Champaign, IL 61821",Champaign,61821,919,1.0,3.0,"$130,500",130500,40.11137,-88.2984,919,1328,7,SINGLE_FAMILY,51297.0,23.0,24,1.0,0.0,1.0,2.0,1.0,0.0,12.233333333333333,10.016666666666667,13.383333333333333,11.683333333333334,12.183333333333334
"2904 Robeson Park Dr, Champaign, IL 61822",Champaign,61822,2960,3.0,4.0,"$305,000",305100,40.089916,-88.29252,2960,3296,7,SINGLE_FAMILY,118393.0,10.0,24,6.0,3.0,3.0,4.0,0.0,0.0,14.65,12.366666666666667,15.916666666666666,11.033333333333333,9.383333333333333
"2002 Bittersweet Dr, Champaign, IL 61821",Champaign,61821,1476,2.0,3.0,"$247,500",247600,40.084457,-88.277985,1476,1750,7,SINGLE_FAMILY,96250.0,5.0,24,0.0,0.0,1.0,1.0,0.0,0.0,13.016666666666667,10.8,13.933333333333334,9.083333333333334,7.633333333333334
"3905 Inverness Rd #3905, Champaign, IL 61822",Champaign,61822,1230,3.0,3.0,"$230,000",229800,40.106583,-88.31011,1230,1678,7,MULTI_FAMILY,60603.0,1.0,24,1.0,0.0,0.0,2.0,1.0,0.0,13.8,11.583333333333334,14.95,12.6,12.0
"8 Evergreen Cir APT D, Savoy, IL 61874",Savoy,61874,1208,2.0,2.0,"$159,900",160000,40.07523,-88.25237,1208,1504,8,CONDO,87534.0,27.0,,11.0,2.0,5.0,4.0,0.0,0.0,11.116666666666667,9.666666666666666,11.6,6.75,8.633333333333333
"706 Pheasant Ln, Savoy, IL 61874",Savoy,61874,2006,3.0,4.0,"$283,500",283600,40.06336,-88.25567,2006,2563,8,SINGLE_FAMILY,126458.0,31.0,,12.0,1.0,3.0,4.0,2.0,1.0,13.083333333333334,11.616666666666667,13.566666666666666,8.716666666666667,7.333333333333333
"1901 Beck Dr #1, Urbana, IL 61801",Urbana,61801,964,2.0,2.0,"$112,000",110500,40.13151,-88.1932,964,1480,8,CONDO,45513.0,25.0,,5.0,1.0,3.0,2.0,0.0,1.0,10.583333333333334,10.65,7.766666666666667,11.616666666666667,20.683333333333334
"3203 Timberline Dr, Champaign, IL 61822",Champaign,61822,1345,2.0,3.0,"$250,000",250100,40.127975,-88.29901,1345,1959,8,SINGLE_FAMILY,86667.0,37.0,14,0.0,0.0,0.0,1.0,1.0,0.0,13.45,10.333333333333334,14.666666666666666,14.333333333333334,14.85
"1108 N State St, Champaign, IL 61820",Champaign,61820,792,1.0,3.0,"$50,000",50000,40.127018,-88.24652,792,1216,12,SINGLE_FAMILY,43346.0,57.0,12,18.0,1.0,10.0,9.0,3.0,0.0,7.616666666666666,3.3333333333333335,7.766666666666667,10.033333333333333,16.4
"504 W Nevada St, Urbana, IL 61801",Urbana,61801,2634,4.0,4.0,"$415,000",415200,40.10683,-88.21352,2634,3481,12,SINGLE_FAMILY,34013.0,54.0,,20.0,15.0,9.0,7.0,5.0,2.0,6.4,9.433333333333334,3.2,4.9,16.766666666666666
"1901 N Lincoln Ave APT 316, Urbana, IL 61801",Urbana,61801,909,2.0,2.0,"$140,000",139800,40.129936,-88.2201,909,1413,12,CONDO,-666666666.0,14.0,,3.0,1.0,0.0,3.0,1.0,0.0,6.6,6.666666666666667,4.516666666666667,8.233333333333333,17.883333333333333
"1404 Stout Dr, Urbana, IL 61802",Urbana,61802,910,1.0,2.0,"$93,000",136900,40.110767,-88.19193,910,1195,13,SINGLE_FAMILY,60909.0,5.0,,4.0,0.0,4.0,4.0,1.0,0.0,9.083333333333334,11.683333333333334,5.05,8.716666666666667,20.116666666666667
"810 S Race St, Urbana, IL 61801",Urbana,61801,1723,2.0,4.0,"$222,000",222000,40.105816,-88.20849,1723,2179,13,SINGLE_FAMILY,63295.0,49.0,,20.0,10.0,10.0,4.0,4.0,2.0,7.083333333333333,10.133333333333333,3.433333333333333,5.416666666666667,16.833333333333332
"1308 Eastern Dr, Urbana, IL 61801",Urbana,61801,925,1.0,2.0,"$132,500",132600,40.10308,-88.19209,925,1390,18,SINGLE_FAMILY,96140.0,4.0,,8.0,1.0,7.0,3.0,3.0,1.0,10.283333333333333,12.783333333333333,6.25,7.05,17.55
"1211 Brad Dr #1211, Urbana, IL 61802",Urbana,61802,1360,2.0,2.0,"$169,000",169100,40.129585,-88.19395,1360,1655,19,CONDO,45513.0,27.0,,6.0,1.0,3.0,3.0,0.0,1.0,10.05,11.3,7.233333333333333,11.083333333333334,20.733333333333334
"1306 Champaign St, Champaign, IL 61820",Champaign,61820,882,1.0,2.0,"$80,000",72700,40.12856,-88.23999,882,1157,20,SINGLE_FAMILY,49589.0,39.0,11,9.0,1.0,5.0,12.0,3.0,0.0,7.183333333333334,4.066666666666666,7.333333333333333,9.583333333333334,18.1
"305 W Oregon St, Urbana, IL 61801",Urbana,61801,1814,2.0,3.0,"$270,000",270100,40.10726,-88.21088,1814,2188,20,SINGLE_FAMILY,34013.0,44.0,,20.0,13.0,10.0,7.0,6.0,3.0,7.116666666666666,10.15,3.8,5.733333333333333,17.133333333333333
"1903 N Lincoln Ave APT 116, Champaign, IL 61801",Champaign,61801,1403,3.0,3.0,"$165,000",165100,40.12945,-88.22175,1403,1943,20,CONDO,-666666666.0,12.0,,2.0,1.0,1.0,3.0,1.0,0.0,7.6,7.65,5.516666666666667,9.216666666666667,18.866666666666667
"1306 1/2 N Champaign St, Champaign, IL 61820",Champaign,61820,882,1.0,2.0,"$80,000",80000,40.129116,-88.23964,882,1169,22,SINGLE_FAMILY,49589.0,39.0,11,10.0,2.0,5.0,11.0,3.0,0.0,7.366666666666666,4.333333333333333,7.533333333333333,9.783333333333333,18.666666666666668
"108 W Stanage Ave, Champaign, IL 61820",Champaign,61820,1361,2.0,3.0,"$87,550",87600,40.105186,-88.24426,1361,1803,25,SINGLE_FAMILY,64375.0,48.0,22,20.0,9.0,3.0,9.0,3.0,1.0,6.35,3.9833333333333334,7.383333333333334,4.766666666666667,12.716666666666667
"2804 E Concord Rd, Urbana, IL 61802",Urbana,61802,3613,3.0,6.0,"$900,000",900500,40.13081,-88.1696,3613,3119,27,SINGLE_FAMILY,78500.0,12.0,,1.0,0.0,2.0,0.0,0.0,0.0,12.6,13.85,9.783333333333333,13.633333333333333,20.983333333333334
"707 Fairlawn Dr, Urbana, IL 61801",Urbana,61801,1188,2.0,2.0,"$185,000",159400,40.10331,-88.200096,1188,1622,27,SINGLE_FAMILY,84474.0,58.0,,8.0,3.0,9.0,5.0,1.0,1.0,8.933333333333334,11.833333333333334,5.116666666666666,5.7,17.1
"1901 N Lincoln Ave APT 117, Urbana, IL 61801",Urbana,61801,909,2.0,2.0,"$145,000",145300,40.129936,-88.2201,909,1413,27,CONDO,-666666666.0,24.0,,3.0,1.0,0.0,3.0,1.0,0.0,6.6,6.666666666666667,4.516666666666667,8.233333333333333,17.883333333333333
"1106 N 5th St, Champaign, IL 61820",Champaign,61820,852,1.0,,"$35,000",59700,40.12668,-88.23184,852,1333,29,SINGLE_FAMILY,33737.0,33.0,11,1.0,0.0,1.0,9.0,1.0,0.0,5.666666666666667,5.066666666666666,5.7,8.483333333333333,18.933333333333334
"511 E Columbia Ave, Champaign, IL 61820",Champaign,61820,1134,1.0,4.0,"$52,500",84700,40.12093,-88.2307,1134,1407,29,SINGLE_FAMILY,-666666666.0,50.0,11,20.0,9.0,3.0,10.0,5.0,2.0,4.616666666666666,4.066666666666666,4.983333333333333,7.683333333333334,17.9
"1003 Fairview Ave, Urbana, IL 61801",Urbana,61801,735,1.0,2.0,"$125,000",126500,40.119793,-88.220894,735,1162,29,SINGLE_FAMILY,32530.0,49.0,,16.0,9.0,3.0,7.0,1.0,0.0,4.733333333333333,5.333333333333333,3.1333333333333333,6.85,18.7
"1009 N Busey Ave, Urbana, IL 61801",Urbana,61801,830,1.0,2.0,"$160,000",160000,40.12167,-88.21734,830,1237,29,SINGLE_FAMILY,31691.0,43.0,,15.0,4.0,1.0,9.0,1.0,1.0,6.05,6.716666666666667,3.966666666666667,7.683333333333334,19.533333333333335
"708 S Walnut St, Urbana, IL 61801",Urbana,61801,1238,2.0,3.0,"$165,000",165000,40.106976,-88.20593,1238,1802,29,SINGLE_FAMILY,63295.0,30.0,,20.0,10.0,10.0,5.0,4.0,2.0,7.75,10.65,3.95,6.066666666666666,17.483333333333334
"1905 N Lincoln Ave APT 104, Urbana, IL 61801",Urbana,61801,909,2.0,2.0,"$145,000",145000,40.130077,-88.22115,909,1413,29,CONDO,-666666666.0,21.0,,2.0,1.0,0.0,2.0,1.0,0.0,7.716666666666667,7.783333333333333,5.633333333333334,9.333333333333334,19.0
"1303 Christopher Cir APT 8, Urbana, IL 61802",Urbana,61802,1016,1.0,2.0,"$100,000",100300,40.129875,-88.192085,1016,1337,32,CONDO,45513.0,26.0,,5.0,1.0,3.0,2.0,0.0,1.0,10.133333333333333,11.383333333333333,7.316666666666666,11.166666666666666,21.183333333333334
"906 Hollycrest Dr, Champaign, IL 61821",Champaign,61821,1599,2.0,4.0,"$205,000",205100,40.107185,-88.27969,1599,2121,8,SINGLE_FAMILY,87298.0,23.0,24,20.0,6.0,7.0,5.0,3.0,0.0,9.9,7.683333333333334,11.05,9.35,10.8
"1518 W University Ave, Champaign, IL 61821",Champaign,61821,1166,2.0,3.0,"$137,000",137100,40.116665,-88.27224,1166,1658,11,SINGLE_FAMILY,73967.0,37.0,14,20.0,6.0,7.0,6.0,4.0,0.0,8.366666666666667,5.116666666666666,9.516666666666667,9.383333333333333,12.333333333333334
"1313 W Ridge Ln, Champaign, IL 61822",Champaign,61822,1732,3.0,4.0,"$330,000",330300,40.129086,-88.31429,1732,2231,11,SINGLE_FAMILY,86667.0,11.0,14,0.0,0.0,0.0,1.0,0.0,0.0,15.5,12.383333333333333,16.716666666666665,16.383333333333333,16.0
"3912 Liberty Cir, Champaign, IL 61822",Champaign,61822,1703,2.0,3.0,"$362,500",362700,40.13186,-88.294945,1703,2384,11,SINGLE_FAMILY,60989.0,24.0,14,0.0,0.0,1.0,1.0,1.0,0.0,13.283333333333333,10.183333333333334,14.433333333333334,14.183333333333334,14.683333333333334
"1005 W John St, Champaign, IL 61821",Champaign,61821,1419,2.0,3.0,"$255,000",255000,40.10875,-88.26077,1419,1640,12,SINGLE_FAMILY,101667.0,24.0,23,1.0,0.0,4.0,3.0,2.0,0.0,7.433333333333334,5.216666666666667,8.583333333333334,6.65,12.1
"3305 Stoneway Ct, Champaign, IL 61822",Champaign,61822,1469,3.0,3.0,"$237,000",237200,40.133034,-88.30018,1469,2210,12,TOWNHOUSE,86667.0,23.0,14,0.0,0.0,0.0,0.0,1.0,0.0,16.6,13.483333333333333,17.816666666666666,17.483333333333334,17.333333333333332
"3811 Boulder Ridge Dr, Champaign, IL 61822",Champaign,61822,1555,2.0,3.0,"$335,000",335000,40.131214,-88.310265,1555,2265,12,SINGLE_FAMILY,86667.0,17.0,14,0.0,0.0,0.0,1.0,0.0,0.0,14.916666666666666,11.816666666666666,16.15,15.633333333333333,15.133333333333333
"705 Higgins Rd, Champaign, IL 61822",Champaign,61822,1785,2.5,3.0,"$120,000",194400,40.124615,-88.28962,1785,1891,13,TOWNHOUSE,60989.0,23.0,14,1.0,0.0,1.0,4.0,4.0,0.0,13.25,9.85,14.183333333333334,14.066666666666666,14.783333333333333
"3807 Sandstone Dr, Champaign, IL 61822",Champaign,61822,2449,3.0,4.0,"$360,000",359900,40.12967,-88.30978,2449,2556,13,SINGLE_FAMILY,86667.0,23.0,14,0.0,0.0,0.0,1.0,0.0,0.0,14.583333333333334,11.483333333333333,15.8,15.466666666666667,15.283333333333333
"904 Pomona Dr #904, Champaign, IL 61822",Champaign,61822,1080,2.0,3.0,"$140,000",140000,40.125076,-88.29313,1080,1431,13,CONDO,60989.0,38.0,14,0.0,0.0,1.0,4.0,3.0,0.0,13.383333333333333,9.983333333333333,14.316666666666666,14.083333333333334,14.6
"2601 Clayton Blvd, Champaign, IL 61822",Champaign,61822,1412,2.0,2.0,"$153,000",162500,40.12259,-88.28751,1412,1460,15,MULTI_FAMILY,60989.0,31.0,14,10.0,1.0,4.0,4.0,4.0,0.0,12.916666666666666,9.516666666666667,13.85,13.733333333333333,14.45
"816 N Prospect Ave, Champaign, IL 61820",Champaign,61820,897,1.0,3.0,"$120,000",120000,40.12441,-88.257545,897,1448,15,SINGLE_FAMILY,43346.0,52.0,12,14.0,1.0,5.0,7.0,1.0,1.0,7.816666666666666,4.55,8.966666666666667,8.816666666666666,14.483333333333333
"601 Erin Dr, Champaign, IL 61822",Champaign,61822,1713,3.0,3.0,"$282,500",282500,40.1225,-88.30342,1713,2424,18,SINGLE_FAMILY,94712.0,33.0,14,0.0,0.0,0.0,1.0,1.0,0.0,13.216666666666667,11.016666666666667,14.366666666666667,14.116666666666667,14.616666666666667
"1318 Myrtle Beach Ave, Champaign, IL 61822",Champaign,61822,1683,3.0,3.0,"$247,500",247700,40.129738,-88.3064,1683,2096,18,TOWNHOUSE,86667.0,31.0,14,0.0,0.0,0.0,2.0,0.0,0.0,15.166666666666666,12.066666666666666,16.4,16.066666666666666,15.883333333333333
"1320 Myrtle Beach Ave, Champaign, IL 61822",Champaign,61822,1683,3.0,3.0,"$247,500",247700,40.129856,-88.30644,1683,2096,18,TOWNHOUSE,86667.0,31.0,14,0.0,0.0,0.0,2.0,0.0,0.0,15.133333333333333,12.016666666666667,16.35,16.016666666666666,15.833333333333334
"510 Corey Ln, Champaign, IL 61822",Champaign,61822,1453,2.0,3.0,"$235,000",235100,40.15156,-88.25332,1453,2015,20,SINGLE_FAMILY,72438.0,17.0,12,14.0,1.0,2.0,1.0,0.0,2.0,12.183333333333334,8.75,11.5,14.6,17.566666666666666
"2801 Heritage Dr, Champaign, IL 61822",Champaign,61822,1230,2.0,3.0,"$180,000",180000,40.124832,-88.292145,1230,1836,21,TOWNHOUSE,60989.0,26.0,14,0.0,0.0,1.0,4.0,3.0,0.0,13.416666666666666,10.316666666666666,14.65,14.3,14.816666666666666
"808 W Green St, Champaign, IL 61820",Champaign,61820,2014,2.0,5.0,"$290,000",290400,40.110332,-88.256836,2014,2728,21,SINGLE_FAMILY,43292.0,42.0,22,2.0,2.0,7.0,4.0,1.0,0.0,6.683333333333334,4.366666666666666,7.916666666666667,6.683333333333334,12.35
"1212 Mimosa Dr, Champaign, IL 61821",Champaign,61821,880,1.0,3.0,"$80,000",80000,40.125263,-88.26677,880,1455,25,SINGLE_FAMILY,28438.0,37.0,14,14.0,1.0,3.0,7.0,0.0,1.0,10.766666666666667,7.633333333333334,11.916666666666666,11.783333333333333,15.95
"919 W John St, Champaign, IL 61821",Champaign,61821,1600,2.0,3.0,"$285,000",285600,40.10875,-88.2597,1600,1833,25,SINGLE_FAMILY,101667.0,5.0,23,1.0,0.0,4.0,3.0,2.0,0.0,7.283333333333333,5.066666666666666,8.433333333333334,6.5,12.233333333333333
"3901 Tallgrass Dr, Champaign, IL 61822",Champaign,61822,2195,4.0,5.0,"$330,000",330200,40.123337,-88.30843,2195,3514,25,SINGLE_FAMILY,94712.0,23.0,14,0.0,0.0,0.0,1.0,1.0,0.0,14.85,11.733333333333333,16.066666666666666,15.566666666666666,15.05
"920 W Vine St, Champaign, IL 61821",Champaign,61821,1172,1.0,3.0,"$166,000",166000,40.12241,-88.259735,1172,1359,27,SINGLE_FAMILY,-666666666.0,46.0,13,10.0,1.0,6.0,9.0,0.0,1.0,8.1,4.95,9.233333333333333,9.1,14.766666666666667
"4011 Pinecrest Dr, Champaign, IL 61822",Champaign,61822,3422,4.0,4.0,"$730,000",730200,40.094257,-88.313805,3422,4341,11,SINGLE_FAMILY,109132.0,24.0,,0.0,0.0,1.0,1.0,0.0,0.0,14.9,12.683333333333334,16.05,11.65,10.133333333333333
"601 Harpers Ferry, Savoy, IL 61874",Savoy,61874,1778,3.0,4.0,"$500,000",500200,40.060555,-88.26747,1778,2589,11,SINGLE_FAMILY,126458.0,0.0,,0.0,0.0,0.0,2.0,1.0,0.0,15.8,14.35,16.283333333333335,11.45,5.8
"2303 Brookhaven Dr, Champaign, IL 61821",Champaign,61821,1136,2.0,3.0,"$110,000",110000,40.091976,-88.284065,1136,1630,12,SINGLE_FAMILY,96250.0,31.0,24,6.0,3.0,3.0,8.0,0.0,0.0,13.15,10.866666666666667,14.416666666666666,9.533333333333333,9.766666666666667
"25 Lange Ave, Savoy, IL 61874",Savoy,61874,2288,2.0,,"$141,500",215900,40.050354,-88.25594,2288,2537,14,SINGLE_FAMILY,82794.0,2.0,,3.0,0.0,1.0,4.0,1.0,0.0,14.3,12.833333333333334,14.783333333333333,9.933333333333334,6.216666666666667
"2510 Hathaway Dr, Champaign, IL 61821",Champaign,61821,1000,1.0,,"$150,000",176100,40.096443,-88.28914,1000,1453,18,SINGLE_FAMILY,118393.0,0.0,24,1.0,2.0,5.0,8.0,0.0,0.0,12.716666666666667,10.45,14.0,9.116666666666667,10.233333333333333
"2114 Harbortown Cir, Champaign, IL 61821",Champaign,61821,1207,1.0,2.0,"$175,000",162800,40.089466,-88.27336,1207,1381,18,CONDO,93068.0,1.0,23,7.0,2.0,7.0,3.0,0.0,0.0,13.116666666666667,10.916666666666666,14.266666666666667,9.583333333333334,8.383333333333333
"1921 Moraine Dr, Champaign, IL 61822",Champaign,61822,1460,2.0,4.0,"$415,000",415200,40.092007,-88.297966,1460,2247,20,SINGLE_FAMILY,109132.0,21.0,,2.0,3.0,2.0,5.0,0.0,0.0,14.3,12.016666666666667,15.583333333333334,10.7,9.366666666666667
"2610 Worthington Dr, Champaign, IL 61822",Champaign,61822,2300,3.0,4.0,"$369,500",369500,40.07968,-88.28935,2300,3179,20,SINGLE_FAMILY,126495.0,0.0,24,6.0,1.0,1.0,5.0,0.0,0.0,15.183333333333334,13.316666666666666,15.683333333333334,10.833333333333334,8.65
"1505 S Western Ave, Champaign, IL 61821",Champaign,61821,1525,1.5,3.0,"$135,000",185200,40.098488,-88.274704,1525,1650,20,SINGLE_FAMILY,105607.0,19.0,23,9.0,3.0,6.0,9.0,0.0,0.0,10.25,8.066666666666666,11.516666666666667,6.65,9.0
"2107 Woodland Glen Ln, Champaign, IL 61822",Champaign,61822,2313,3.0,4.0,"$340,000",340100,40.089226,-88.29456,2313,3343,21,SINGLE_FAMILY,118393.0,22.0,24,7.0,3.0,3.0,5.0,0.0,0.0,14.3,12.033333333333333,15.583333333333334,10.7,9.033333333333333
"705 W Kirby Ave, Champaign, IL 61820",Champaign,61820,2091,3.0,4.0,"$389,900",390100,40.09762,-88.254326,2091,2535,21,SINGLE_FAMILY,70039.0,7.0,22,20.0,6.0,10.0,3.0,2.0,0.0,7.833333333333333,6.183333333333334,9.1,4.216666666666667,10.866666666666667
"1704 Clover Ln, Champaign, IL 61821",Champaign,61821,925,1.0,3.0,"$165,000",165400,40.096245,-88.27943,925,1458,25,SINGLE_FAMILY,76006.0,23.0,24,9.0,3.0,8.0,9.0,0.0,0.0,12.066666666666666,9.85,13.216666666666667,8.533333333333333,8.833333333333334
"1203 Lancaster Dr, Champaign, IL 61821",Champaign,61821,1900,3.0,2.0,"$257,500",257600,40.081924,-88.26544,1900,1672,25,TOWNHOUSE,179609.0,30.0,23,3.0,0.0,5.0,2.0,1.0,0.0,12.3,10.566666666666666,12.8,7.95,8.466666666666667
"2205 Savanna Dr, Champaign, IL 61822",Champaign,61822,2447,3.0,4.0,"$485,000",485100,40.08762,-88.328064,2447,2981,25,SINGLE_FAMILY,173636.0,13.0,24,0.0,0.0,0.0,3.0,0.0,0.0,18.05,15.85,19.2,14.366666666666667,11.666666666666666
"13 Golfview Dr, Savoy, IL 61874",Savoy,61874,2348,2.0,4.0,"$355,000",355600,40.053967,-88.25878,2348,2936,26,SINGLE_FAMILY,82794.0,2.0,,6.0,0.0,1.0,5.0,2.0,1.0,13.666666666666666,12.2,14.15,9.3,4.6
"1506 Harrington Dr, Champaign, IL 61821",Champaign,61821,1473,2.0,3.0,"$271,000",271100,40.08715,-88.27035,1473,1865,27,SINGLE_FAMILY,93068.0,0.0,,3.0,0.0,8.0,1.0,1.0,0.0,12.016666666666667,9.8,12.9,8.05,8.0
"1818 Tahoe Ct, Champaign, IL 61822",Champaign,61822,724,2.5,,"$130,000",188500,40.09459,-88.29302,724,1234,28,CONDO,118393.0,27.0,24,1.0,2.0,2.0,5.0,0.0,0.0,14.366666666666667,12.083333333333334,15.633333333333333,10.75,10.45
"2510 Arden Dr, Champaign, IL 61821",Champaign,61821,2600,3.0,4.0,"$155,000",155300,40.09718,-88.28915,2600,2478,28,SINGLE_FAMILY,118393.0,0.0,24,1.0,2.0,4.0,9.0,0.0,0.0,12.616666666666667,10.333333333333334,13.9,9.016666666666667,10.366666666666667
"3504 Royal Oak Ct, Champaign, IL 61822",Champaign,61822,2185,3.0,5.0,"$323,000",323100,40.09551,-88.30355,2185,2623,32,SINGLE_FAMILY,109132.0,26.0,,1.0,2.0,1.0,1.0,0.0,0.0,15.116666666666667,12.85,16.4,11.516666666666667,11.616666666666667
"4012 Lakepoint Rd, Champaign, IL 61822",Champaign,61822,3779,5.0,3.0,"$750,000",750900,40.09046,-88.31208,3779,4647,32,SINGLE_FAMILY,109132.0,32.0,,0.0,0.0,1.0,1.0,0.0,0.0,16.516666666666666,14.316666666666666,17.666666666666668,13.366666666666667,10.683333333333334
"3308 Pebblecreek Pl, Champaign, IL 61822",Champaign,61822,2412,3.0,4.0,"$327,500",391500,40.081352,-88.30142,2412,3279,32,SINGLE_FAMILY,126495.0,22.0,24,6.0,1.0,0.0,4.0,1.0,0.0,15.7,13.833333333333334,16.2,11.35,9.516666666666667
"2002 Savanna Dr, Champaign, IL 61822",Champaign,61822,2364,4.0,4.0,"$525,000",525200,40.09077,-88.32737,2364,3140,32,SINGLE_FAMILY,173636.0,15.0,24,0.0,0.0,0.0,3.0,0.0,0.0,17.516666666666666,15.3,18.666666666666668,14.2,12.15
"1912 Trout Valley Dr, Champaign, IL 61822",Champaign,61822,2434,3.0,3.0,"$400,000",400200,40.0932,-88.30877,2434,3017,33,SINGLE_FAMILY,109132.0,32.0,,0.0,0.0,1.0,1.0,0.0,0.0,15.5,13.216666666666667,16.783333333333335,11.9,12.016666666666667
"1314 S State St, Champaign, IL 61820",Champaign,61820,1439,1.0,3.0,"$235,000",235100,40.100677,-88.24631,1439,1519,8,SINGLE_FAMILY,57140.0,1.0,22,20.0,4.0,5.0,7.0,4.0,0.0,6.85,4.733333333333333,8.0,4.05,12.333333333333334
"3026 E Stillwater Lndg APT 102, Urbana, IL 61802",Urbana,61802,1097,2.0,2.0,"$179,900",180200,40.090416,-88.1653,1097,1462,11,CONDO,111250.0,1.0,,3.0,0.0,0.0,0.0,0.0,0.0,15.066666666666666,16.666666666666668,11.266666666666667,10.566666666666666,16.85
"3042 E Stillwater Lndg APT 101, Urbana, IL 61802",Urbana,61802,1076,2.0,2.0,"$185,500",185500,40.09068,-88.16449,1076,1445,11,CONDO,111250.0,4.0,,3.0,0.0,0.0,0.0,0.0,0.0,15.583333333333334,17.183333333333334,11.216666666666667,10.833333333333334,17.366666666666667
"802 E Florida Ave, Urbana, IL 61801",Urbana,61801,775,1.0,,"$50,000",120800,40.09863,-88.19833,775,1251,20,SINGLE_FAMILY,84474.0,59.0,,8.0,1.0,7.0,3.0,2.0,1.0,9.866666666666667,11.683333333333334,6.233333333333333,5.216666666666667,16.633333333333333
"6 Shuman Cir, Urbana, IL 61801",Urbana,61801,2211,2.0,3.0,"$274,000",274100,40.092377,-88.2013,2211,2219,21,SINGLE_FAMILY,37156.0,1.0,,3.0,0.0,4.0,4.0,2.0,1.0,10.483333333333333,12.3,7.0,5.833333333333333,15.75
"316 London Way, Savoy, IL 61874",Savoy,61874,2419,4.0,5.0,"$464,500",465200,40.051544,-88.24555,2419,3009,21,SINGLE_FAMILY,161012.0,5.0,,3.0,0.0,2.0,6.0,0.0,0.0,14.566666666666666,13.016666666666667,13.783333333333333,8.933333333333334,7.5
"601 E Tomaras Ave, Savoy, IL 61874",Savoy,61874,2095,3.0,4.0,"$329,000",329100,40.06009,-88.24126,2095,2666,22,SINGLE_FAMILY,150129.0,26.0,,5.0,0.0,2.0,3.0,1.0,1.0,12.316666666666666,11.833333333333334,11.533333333333333,6.683333333333334,8.083333333333334
"2016 Boudreau Dr, Urbana, IL 61801",Urbana,61801,1429,1.0,3.0,"$220,000",220000,40.092285,-88.20706,1429,1894,22,SINGLE_FAMILY,154570.0,43.0,,0.0,0.0,3.0,7.0,0.0,0.0,9.833333333333334,11.633333333333333,7.2,5.166666666666667,14.483333333333333
"2408 Pond St, Urbana, IL 61801",Urbana,61801,1852,3.0,4.0,"$302,000",302100,40.08624,-88.19312,1852,2170,22,SINGLE_FAMILY,63696.0,2.0,,2.0,1.0,4.0,3.0,2.0,2.0,11.816666666666666,13.45,9.033333333333333,7.083333333333333,14.916666666666666
"3 Lyndhurst Village Ct APT F, Savoy, IL 61874",Savoy,61874,1612,2.0,2.0,"$195,000",195300,40.07496,-88.25045,1612,1829,22,CONDO,87534.0,26.0,,11.0,2.0,4.0,4.0,0.0,0.0,10.95,9.5,11.45,6.6,8.466666666666667
"3 Lyndhurst Village Ct APT F, Savoy, IL 61874",Savoy,61874,1594,2.0,2.0,"$195,000",195000,40.07496,-88.25045,1594,1850,25,CONDO,87534.0,26.0,,11.0,2.0,4.0,4.0,0.0,0.0,10.95,9.5,11.45,6.6,8.466666666666667
"106 Essex Ln UNIT 7, Savoy, IL 61874",Savoy,61874,1315,2.0,2.0,"$220,000",220400,40.055855,-88.24711,1315,1591,26,CONDO,150129.0,3.0,,4.0,0.0,2.0,6.0,2.0,1.0,14.083333333333334,12.633333333333333,13.85,9.0,7.116666666666666
"2210 E Michigan Ave, Urbana, IL 61802",Urbana,61802,1560,2.0,3.0,"$210,000",210100,40.10203,-88.178635,1560,2130,27,SINGLE_FAMILY,84683.0,34.0,,0.0,0.0,3.0,3.0,1.0,0.0,11.5,14.383333333333333,7.483333333333333,7.916666666666667,18.55
"411 Hessel Blvd, Champaign, IL 61820",Champaign,61820,1608,3.0,3.0,"$381,500",381800,40.10196,-88.24927,1608,2212,28,SINGLE_FAMILY,57140.0,3.0,22,20.0,5.0,6.0,7.0,2.0,0.0,6.95,4.833333333333333,8.083333333333334,4.683333333333334,12.4
"2513 Muirfield Pl, Urbana, IL 61802",Urbana,61802,2232,3.0,5.0,"$627,000",627200,40.08738,-88.173775,2232,3432,29,SINGLE_FAMILY,111250.0,34.0,,2.0,0.0,2.0,0.0,1.0,0.0,14.716666666666667,16.333333333333332,11.95,9.983333333333333,17.266666666666666
"3013 E Stillwater Lndg, Urbana, IL 61802",Urbana,61802,1287,2.0,2.0,"$251,000",271900,40.090046,-88.16692,1287,2290,29,SINGLE_FAMILY,111250.0,4.0,,3.0,0.0,0.0,0.0,0.0,0.0,14.616666666666667,16.416666666666668,10.35,9.95,16.766666666666666
"106 Essex Ln UNIT 7, Savoy, IL 61874",Savoy,61874,1315,2.0,2.0,"$220,000",220100,40.055145,-88.2472,1315,1572,29,CONDO,150129.0,2.0,,5.0,0.0,2.0,6.0,2.0,1.0,13.7,12.233333333333333,13.45,8.6,6.716666666666667
"409 London Way, Savoy, IL 61874",Savoy,61874,2937,4.0,5.0,"$599,000",599500,40.051056,-88.24408,2937,3274,31,SINGLE_FAMILY,161012.0,16.0,,1.0,0.0,1.0,2.0,0.0,0.0,14.166666666666666,12.966666666666667,13.366666666666667,8.533333333333333,7.45
"203 Willard St, Urbana, IL 61801",Urbana,61801,1496,2.0,3.0,"$270,000",270700,40.08435,-88.2047,1496,2118,32,SINGLE_FAMILY,154570.0,21.0,,0.0,0.0,1.0,5.0,0.0,0.0,10.933333333333334,12.733333333333333,8.183333333333334,6.283333333333333,14.583333333333334
"2803 S Myra Ridge Dr, Urbana, IL 61802",Urbana,61802,1706,2.0,3.0,"$251,000",251100,40.082314,-88.18557,1706,2025,32,SINGLE_FAMILY,104500.0,18.0,,2.0,1.0,4.0,2.0,1.0,1.0,12.183333333333334,13.816666666666666,9.75,7.466666666666667,15.016666666666667
"2109 Grange Dr, Urbana, IL 61801",Urbana,61801,2585,2.0,4.0,"$235,000",286900,40.089355,-88.20806,2585,2585,33,SINGLE_FAMILY,154570.0,32.0,,0.0,0.0,2.0,4.0,0.0,0.0,9.816666666666666,11.616666666666667,6.75,5.15,14.0
"903 Bergamot St, Savoy, IL 61874",Savoy,61874,2682,4.0,6.0,"$420,000",420500,40.064713,-88.24853,2682,3768,33,SINGLE_FAMILY,150129.0,4.0,,13.0,1.0,4.0,3.0,1.0,1.0,14.633333333333333,14.15,13.85,9.0,9.35
"303 Dropseed Dr, Savoy, IL 61874",Savoy,61874,2335,3.0,4.0,"$369,900",370200,40.057304,-88.24578,2335,2745,33,SINGLE_FAMILY,150129.0,4.0,,5.0,0.0,3.0,6.0,2.0,1.0,13.95,12.483333333333333,13.166666666666666,8.316666666666666,6.966666666666667
"1510 Rutledge Dr, Urbana, IL 61802",Urbana,61802,1695,2.0,4.0,"$195,000",195600,40.10029,-88.182724,1695,1889,35,SINGLE_FAMILY,55684.0,40.0,,6.0,1.0,4.0,3.0,2.0,1.0,11.9,13.7,7.633333333333334,7.233333333333333,17.866666666666667
"309 E McHenry St, Urbana, IL 61801",Urbana,61801,2178,3.0,4.0,"$266,000",267000,40.087555,-88.2027,2178,2812,39,SINGLE_FAMILY,63696.0,4.0,,0.0,0.0,2.0,5.0,0.0,0.0,10.4,12.2,7.083333333333333,5.733333333333333,14.033333333333333
"1506 Montgomery St, Urbana, IL 61802",Urbana,61802,1302,2.0,3.0,"$205,500",205700,40.100056,-88.17346,1302,2139,41,SINGLE_FAMILY,84683.0,23.0,,0.0,0.0,2.0,2.0,0.0,0.0,13.316666666666666,15.283333333333333,9.283333333333333,8.833333333333334,19.45
"3204 Fawn Hill Ct, Urbana, IL 61802",Urbana,61802,1743,2.0,3.0,"$280,000",280300,40.07742,-88.18942,1743,2565,42,SINGLE_FAMILY,104500.0,13.0,,2.0,1.0,2.0,1.0,1.0,1.0,12.4,14.016666666666667,9.95,7.666666666666667,13.583333333333334
"1807 Trails Dr, Urbana, IL 61802",Urbana,61802,1844,4.0,5.0,"$324,900",325500,40.076687,-88.18414,1844,3193,43,SINGLE_FAMILY,104500.0,11.0,,2.0,1.0,3.0,1.0,1.0,0.0,13.1,14.733333333333333,10.65,8.366666666666667,14.283333333333333
"2911 E Oaks Rd, Urbana, IL 61802",Urbana,61802,1906,2.0,3.0,"$425,000",426100,40.14928,-88.167946,1906,2374,41,SINGLE_FAMILY,118750.0,6.0,,0.0,0.0,0.0,1.0,0.0,0.0,12.716666666666667,11.183333333333334,9.9,13.75,21.233333333333334
"3005 E Oaks Rd, Urbana, IL 61802",Urbana,61802,2382,2.0,3.0,"$390,000",451100,40.14929,-88.16718,2382,2681,1055,SINGLE_FAMILY,118750.0,6.0,,0.0,0.0,0.0,1.0,0.0,0.0,12.783333333333333,11.25,9.966666666666667,13.816666666666666,22.466666666666665
"709 Bardeen Ln, Champaign, IL 61822",Champaign,61822,1582,3.0,4.0,"$269,900",270100,40.15182,-88.25612,1582,2284,32,SINGLE_FAMILY,72438.0,11.0,12,14.0,1.0,2.0,1.0,0.0,2.0,12.85,9.416666666666666,12.166666666666666,15.266666666666667,16.883333333333333
"614 Luria Ln, Champaign, IL 61822",Champaign,61822,1438,2.0,3.0,"$235,000",235900,40.154602,-88.255,1438,2273,40,SINGLE_FAMILY,72438.0,11.0,12,4.0,1.0,2.0,1.0,0.0,1.0,13.383333333333333,10.116666666666667,12.866666666666667,15.8,17.216666666666665
"407 Corey Ln, Champaign, IL 61822",Champaign,61822,1590,2.0,3.0,"$315,000",316100,40.15113,-88.25127,1590,2261,49,SINGLE_FAMILY,72438.0,17.0,12,15.0,1.0,0.0,1.0,0.0,1.0,12.266666666666667,8.833333333333334,11.566666666666666,14.683333333333334,18.066666666666666
"507 Krebs Dr, Champaign, IL 61822",Champaign,61822,1667,2.0,3.0,"$288,500",290300,40.153442,-88.25279,1667,2274,49,SINGLE_FAMILY,72438.0,17.0,12,6.0,1.0,2.0,1.0,0.0,1.0,13.066666666666666,9.616666666666667,12.366666666666667,15.466666666666667,17.6
"514 Luria Ln, Champaign, IL 61822",Champaign,61822,1600,3.0,3.0,"$269,900",270900,40.154617,-88.25335,1600,2350,53,SINGLE_FAMILY,72438.0,11.0,12,3.0,1.0,2.0,1.0,0.0,1.0,13.066666666666666,9.633333333333333,12.366666666666667,15.483333333333333,17.6
"404 Krebs Dr, Champaign, IL 61822",Champaign,61822,2113,3.0,3.0,"$360,000",361600,40.1539,-88.25119,2113,2704,60,SINGLE_FAMILY,72438.0,9.0,12,3.0,1.0,2.0,1.0,0.0,1.0,13.0,9.566666666666666,12.3,15.4,18.116666666666667
"3407 Nobel Dr, Champaign, IL 61822",Champaign,61822,1444,2.0,3.0,"$260,000",262000,40.155746,-88.25701,1444,2309,82,SINGLE_FAMILY,72438.0,9.0,12,3.0,1.0,2.0,1.0,0.0,1.0,13.283333333333333,10.15,12.9,15.683333333333334,17.1
"3410 Sharp Dr, Champaign, IL 61822",Champaign,61822,1811,3.0,3.0,"$290,000",293000,40.15594,-88.250725,1811,2641,96,SINGLE_FAMILY,72438.0,6.0,12,,0.0,2.0,1.0,0.0,1.0,13.6,10.166666666666666,12.916666666666666,16.016666666666666,18.233333333333334
"506 Luria Ln, Champaign, IL 61822",Champaign,61822,1211,2.0,2.0,"$230,000",232400,40.15462,-88.25263,1211,1955,99,SINGLE_FAMILY,72438.0,8.0,12,3.0,1.0,2.0,1.0,0.0,1.0,13.266666666666667,9.833333333333334,12.583333333333334,15.683333333333334,17.8
"412 Yalow Dr, Champaign, IL 61822",Champaign,61822,1412,2.0,3.0,"$255,000",257900,40.15536,-88.252106,1412,2263,103,SINGLE_FAMILY,72438.0,8.0,12,2.0,1.0,2.0,1.0,0.0,1.0,13.733333333333333,10.3,13.033333333333333,16.15,18.283333333333335
"3207 Nobel Dr, Champaign, IL 61822",Champaign,61822,1794,3.0,3.0,"$285,000",288500,40.15334,-88.25698,1794,2608,106,SINGLE_FAMILY,72438.0,10.0,12,8.0,1.0,2.0,1.0,0.0,2.0,12.75,9.616666666666667,12.366666666666667,15.166666666666666,16.566666666666666
"513 Luria Ln, Champaign, IL 61822",Champaign,61822,1653,3.0,4.0,"$246,500",249000,40.154167,-88.25334,1653,2184,112,SINGLE_FAMILY,72438.0,11.0,12,5.0,1.0,2.0,1.0,0.0,1.0,12.833333333333334,9.4,12.15,15.25,17.383333333333333
"3006 Meridian Dr, Champaign, IL 61822",Champaign,61822,1956,2.0,3.0,"$182,500",176500,40.165154,-88.29698,1956,2655,119,SINGLE_FAMILY,118750.0,16.0,,0.0,0.0,0.0,0.0,0.0,0.0,16.4,12.916666666666666,15.216666666666667,17.416666666666668,16.616666666666667
"706 Lauterbur Ln, Champaign, IL 61822",Champaign,61822,1215,2.0,2.0,"$237,000",239700,40.156075,-88.25577,1215,1931,123,SINGLE_FAMILY,72438.0,16.0,12,2.0,1.0,2.0,1.0,0.0,1.0,13.433333333333334,10.316666666666666,13.05,15.85,17.266666666666666
"701 Bardeen Ln, Champaign, IL 61822",Champaign,61822,1680,3.0,4.0,"$285,000",288300,40.15183,-88.25537,1680,2331,125,SINGLE_FAMILY,72438.0,16.0,12,13.0,1.0,2.0,1.0,0.0,2.0,12.733333333333333,9.3,12.05,15.15,17.05
"508 Lauterbur Ln, Champaign, IL 61822",Champaign,61822,1626,3.0,4.0,"$280,000",283500,40.156105,-88.25284,1626,2463,130,SINGLE_FAMILY,72438.0,14.0,12,2.0,1.0,2.0,1.0,0.0,1.0,13.95,10.3,13.033333333333333,16.366666666666667,17.783333333333335
"606 Luria Ln, Champaign, IL 61822",Champaign,61822,1626,3.0,3.0,"$275,000",278400,40.15461,-88.25428,1626,2489,132,SINGLE_FAMILY,72438.0,11.0,12,3.0,1.0,2.0,1.0,0.0,1.0,13.5,9.933333333333334,12.683333333333334,15.916666666666666,17.316666666666666
"510 Doisy Ln, Champaign, IL 61822",Champaign,61822,1200,1.0,2.0,"$222,000",224900,40.15083,-88.2533,1200,1494,137,SINGLE_FAMILY,72438.0,10.0,12,16.0,1.0,2.0,1.0,0.0,3.0,11.966666666666667,8.533333333333333,11.266666666666667,14.383333333333333,17.833333333333332
"711 Newton Dr, Champaign, IL 61822",Champaign,61822,1000,2.0,2.0,"$195,850",198900,40.152557,-88.25622,1000,1492,152,SINGLE_FAMILY,72438.0,14.0,12,10.0,1.0,2.0,1.0,0.0,2.0,12.666666666666666,9.533333333333333,12.283333333333333,15.066666666666666,16.483333333333334
"701 Krebs Dr, Champaign, IL 61822",Champaign,61822,1244,2.0,2.0,"$230,000",233600,40.15342,-88.25533,1244,1694,158,SINGLE_FAMILY,72438.0,14.0,12,8.0,1.0,2.0,1.0,0.0,1.0,13.333333333333334,9.95,12.7,15.75,17.166666666666668
"505 Yalow Dr, Champaign, IL 61822",Champaign,61822,1818,3.0,3.0,"$287,000",291900,40.154907,-88.25264,1818,2628,166,SINGLE_FAMILY,72438.0,9.0,12,2.0,1.0,2.0,1.0,0.0,1.0,13.566666666666666,10.133333333333333,12.883333333333333,15.983333333333333,18.116666666666667
"508 Luria Ln, Champaign, IL 61822",Champaign,61822,1506,3.0,3.0,"$269,000",274000,40.15462,-88.252815,1506,2366,175,SINGLE_FAMILY,72438.0,10.0,12,3.0,1.0,2.0,1.0,0.0,1.0,13.216666666666667,9.783333333333333,12.533333333333333,15.633333333333333,17.75
"710 Bardeen Ln, Champaign, IL 61822",Champaign,61822,1147,2.0,2.0,"$222,000",226200,40.15227,-88.256035,1147,1585,179,SINGLE_FAMILY,72438.0,14.0,12,10.0,1.0,2.0,1.0,0.0,2.0,12.833333333333334,9.4,12.15,15.25,16.9
"405 Corey Ln, Champaign, IL 61822",Champaign,61822,2488,3.0,4.0,"$360,099",368100,40.15113,-88.25108,2488,2944,190,SINGLE_FAMILY,72438.0,17.0,12,15.0,1.0,0.0,1.0,0.0,1.0,12.3,8.866666666666667,11.616666666666667,14.716666666666667,18.1
"2771 J T Coffman Dr, Champaign, IL 61822",Champaign,61822,1350,2.0,2.0,"$237,000",242000,40.148685,-88.25157,1350,1763,190,SINGLE_FAMILY,64706.0,9.0,12,20.0,4.0,0.0,1.0,0.0,3.0,11.5,8.066666666666666,10.8,13.916666666666666,17.633333333333333
"501 Bardeen Ln, Champaign, IL 61822",Champaign,61822,1468,2.0,3.0,"$248,000",253700,40.15185,-88.25258,1468,2024,201,SINGLE_FAMILY,72438.0,17.0,12,13.0,1.0,2.0,1.0,0.0,1.0,11.983333333333333,8.533333333333333,11.283333333333333,14.383333333333333,17.283333333333335
"613 Doisy Ln, Champaign, IL 61822",Champaign,61822,1175,2.0,2.0,"$210,000",217700,40.15035,-88.25469,1175,1612,204,SINGLE_FAMILY,72438.0,17.0,12,18.0,3.0,2.0,1.0,0.0,3.0,12.166666666666666,8.733333333333333,11.466666666666667,14.583333333333334,17.65
"514 Krebs Dr, Champaign, IL 61822",Champaign,61822,2549,3.0,5.0,"$360,000",368700,40.15388,-88.253334,2549,2961,207,SINGLE_FAMILY,72438.0,17.0,12,6.0,1.0,2.0,1.0,0.0,1.0,12.783333333333333,9.35,12.1,15.2,17.333333333333332
"704 Doisy Ln, Champaign, IL 61822",Champaign,61822,1431,2.0,3.0,"$237,000",243800,40.15081,-88.25553,1431,2012,229,SINGLE_FAMILY,72438.0,20.0,12,17.0,2.0,2.0,1.0,0.0,3.0,12.283333333333333,8.85,11.583333333333334,14.7,17.466666666666665
"610 Yalow Dr, Champaign, IL 61822",Champaign,61822,1604,3.0,4.0,"$130,000",241100,40.15534,-88.25465,1604,2336,236,SINGLE_FAMILY,72438.0,8.0,12,3.0,1.0,2.0,1.0,0.0,1.0,13.766666666666667,10.1,12.833333333333334,16.183333333333334,17.6
"600 Lauterbur Ln, Champaign, IL 61822",Champaign,61822,1875,3.0,3.0,"$278,200",287100,40.156097,-88.253624,1875,2630,238,SINGLE_FAMILY,72438.0,14.0,12,2.0,1.0,2.0,1.0,0.0,1.0,13.4,9.966666666666667,12.7,15.816666666666666,17.566666666666666
"3103 Nobel Dr, Champaign, IL 61822",Champaign,61822,1014,2.0,2.0,"$200,000",206500,40.152283,-88.256966,1014,1500,246,SINGLE_FAMILY,72438.0,14.0,12,10.0,1.0,2.0,1.0,0.0,2.0,12.733333333333333,9.616666666666667,12.35,15.15,16.566666666666666
"3005 Nobel Dr, Champaign, IL 61822",Champaign,61822,1741,3.0,3.0,"$260,000",270100,40.151737,-88.25681,1741,2263,274,SINGLE_FAMILY,72438.0,14.0,12,14.0,2.0,2.0,1.0,0.0,2.0,12.95,9.616666666666667,12.35,15.366666666666667,16.766666666666666
"4701 Vahalla Dr, Champaign, IL 61822",Champaign,61822,2614,5.0,6.0,"$635,940",638100,40.105854,-88.32453,2614,4565,43,SINGLE_FAMILY,60603.0,4.0,24,0.0,0.0,0.0,2.0,0.0,0.0,17.833333333333332,15.616666666666667,18.966666666666665,14.616666666666667,14.066666666666666
"4707 Vahalla Dr, Champaign, IL 61822",Champaign,61822,2670,4.0,5.0,"$528,500",532200,40.105175,-88.32557,2670,4036,64,SINGLE_FAMILY,60603.0,5.0,24,0.0,0.0,0.0,2.0,0.0,0.0,17.616666666666667,15.4,18.75,14.4,13.85
"214 S Rising Rd, Champaign, IL 61822",Champaign,61822,1555,2.0,3.0,"$145,000",169900,40.116817,-88.33277,1555,2140,99,SINGLE_FAMILY,94712.0,0.0,,0.0,0.0,0.0,0.0,0.0,0.0,14.383333333333333,12.166666666666666,15.516666666666667,14.483333333333333,13.65
"1207 English Oak Dr, Champaign, IL 61822",Champaign,61822,2109,3.0,4.0,"$550,000",556100,40.1042,-88.32605,2109,3385,120,SINGLE_FAMILY,60603.0,0.0,24,0.0,0.0,0.0,2.0,0.0,0.0,16.7,14.5,17.85,13.5,12.95
"5010 W Dudley Rd, Champaign, IL 61822",Champaign,61822,1766,2.0,3.0,"$307,000",305500,40.125896,-88.32949,1766,2294,124,SINGLE_FAMILY,94712.0,0.0,,0.0,0.0,1.0,0.0,0.0,0.0,16.133333333333333,13.933333333333334,17.283333333333335,16.25,15.416666666666666
"4810 Oakdale Dr, Champaign, IL 61822",Champaign,61822,3602,4.0,4.0,"$695,000",736000,40.10585,-88.327034,3602,4998,389,SINGLE_FAMILY,60603.0,0.0,24,0.0,0.0,0.0,2.0,0.0,0.0,17.716666666666665,15.5,18.85,14.5,13.95
"702 N Rising Rd, Champaign, IL 61822",Champaign,61822,1505,2.0,3.0,"$276,100",294500,40.12488,-88.33295,1505,2295,413,SINGLE_FAMILY,94712.0,0.0,,0.0,0.0,1.0,0.0,0.0,0.0,15.483333333333333,13.266666666666667,16.616666666666667,15.583333333333334,14.75
"413 S Rising Rd, Champaign, IL 61822",Champaign,61822,3200,3.0,4.0,"$525,000",560200,40.111977,-88.33398,3200,3910,449,SINGLE_FAMILY,60603.0,1.0,,0.0,0.0,0.0,2.0,0.0,0.0,14.116666666666667,11.9,15.266666666666667,14.016666666666667,12.916666666666666
"1206 English Oak Dr, Champaign, IL 61822",Champaign,61822,3224,5.0,5.0,"$675,000",721800,40.103764,-88.32557,3224,4653,463,SINGLE_FAMILY,60603.0,3.0,24,0.0,0.0,1.0,2.0,0.0,0.0,16.7,14.483333333333333,17.85,13.5,12.95
"1104 Glen Abbey Dr, Champaign, IL 61822",Champaign,61822,2033,3.0,4.0,"$490,000",527300,40.105072,-88.32764,2033,3294,496,SINGLE_FAMILY,60603.0,1.0,24,0.0,0.0,0.0,2.0,0.0,0.0,17.15,14.933333333333334,18.283333333333335,13.933333333333334,13.383333333333333
"4806 Vahalla Dr, Champaign, IL 61822",Champaign,61822,2658,4.0,5.0,"$685,000",716900,40.105034,-88.32675,2658,3912,550,SINGLE_FAMILY,60603.0,1.0,24,0.0,0.0,0.0,2.0,0.0,0.0,17.4,15.183333333333334,18.55,14.2,13.65
"1108 English Oak Dr, Champaign, IL 61822",Champaign,61822,2011,3.0,5.0,"$500,000",544000,40.10461,-88.3243,2011,3293,558,SINGLE_FAMILY,60603.0,3.0,24,0.0,0.0,1.0,2.0,0.0,0.0,17.0,14.783333333333333,18.15,13.8,13.25
"5021 W Dudley Rd, Champaign, IL 61822",Champaign,61822,1627,2.0,3.0,"$281,000",309400,40.12465,-88.33135,1627,2201,677,SINGLE_FAMILY,94712.0,0.0,,0.0,0.0,1.0,0.0,0.0,0.0,15.816666666666666,13.6,16.966666666666665,15.933333333333334,15.083333333333334
"4804 Oakdale Dr, Champaign, IL 61822",Champaign,61822,2681,5.0,5.0,"$624,535",673500,40.105846,-88.32618,2681,4316,872,SINGLE_FAMILY,60603.0,0.0,24,0.0,0.0,0.0,2.0,0.0,0.0,17.966666666666665,15.766666666666667,19.116666666666667,14.766666666666667,14.216666666666667
"5314 Trautlake Dr S #5314, Champaign, IL 61822",Champaign,61822,2311,3.0,3.0,"$199,000",243900,40.119957,-88.33279,2311,2559,915,CONDO,94712.0,0.0,,0.0,0.0,1.0,0.0,0.0,0.0,15.25,13.033333333333333,16.383333333333333,15.35,14.516666666666667
"5316 Trautlake Dr S, Champaign, IL 61822",Champaign,61822,1880,4.0,3.0,"$207,500",268000,40.120064,-88.332634,1880,2374,949,CONDO,94712.0,0.0,,0.0,0.0,1.0,0.0,0.0,0.0,15.283333333333333,13.066666666666666,16.416666666666668,15.383333333333333,14.55
"1209 English Oak Dr, Champaign, IL 61822",Champaign,61822,2068,3.0,5.0,"$495,000",558100,40.104042,-88.32628,2068,3530,1008,SINGLE_FAMILY,60603.0,3.0,24,0.0,0.0,0.0,2.0,0.0,0.0,16.666666666666668,14.45,17.816666666666666,13.466666666666667,12.916666666666666
"4701 English Oak Ct, Champaign, IL 61822",Champaign,61822,3135,4.0,5.0,"$602,000",660900,40.103645,-88.324066,3135,4700,1026,SINGLE_FAMILY,60603.0,2.0,24,0.0,0.0,1.0,2.0,0.0,0.0,17.183333333333334,14.966666666666667,18.316666666666666,13.966666666666667,13.433333333333334
"322 S Rising Rd, Champaign, IL 61822",Champaign,61822,2860,2.0,4.0,"$232,000",273900,40.11431,-88.33298,2860,2995,1054,SINGLE_FAMILY,94712.0,0.0,,0.0,0.0,0.0,1.0,0.0,0.0,14.116666666666667,11.9,15.266666666666667,14.233333333333333,13.383333333333333
"1312 Cobblestone Way, Champaign, IL 61822",Champaign,61822,1360,2.0,2.0,"$205,000",205400,40.130005,-88.30432,1360,1651,28,TOWNHOUSE,86667.0,30.0,14,0.0,0.0,0.0,2.0,0.0,0.0,15.866666666666667,12.75,17.083333333333332,16.75,16.6
"3110 Meadowbrook Dr, Champaign, IL 61822",Champaign,61822,2197,4.0,3.0,"$375,000",370600,40.08554,-88.299255,2197,2890,33,SINGLE_FAMILY,109132.0,32.0,,6.0,1.0,0.0,5.0,0.0,0.0,15.566666666666666,13.216666666666667,16.066666666666666,11.216666666666667,9.383333333333333
"203 W Tomaras Ave, Savoy, IL 61874",Savoy,61874,2132,3.0,3.0,"$325,000",370400,40.062332,-88.25327,2132,2721,35,SINGLE_FAMILY,126458.0,6.0,,10.0,1.0,2.0,5.0,2.0,1.0,15.133333333333333,13.666666666666666,15.616666666666667,10.766666666666667,8.55
"1204 Harrington Dr, Champaign, IL 61821",Champaign,61821,1716,2.0,3.0,"$258,832",259000,40.08715,-88.2645,1716,1979,35,SINGLE_FAMILY,168646.0,1.0,23,3.0,0.0,7.0,3.0,1.0,0.0,11.2,9.0,12.233333333333333,7.383333333333334,8.416666666666666
"2754 J T Coffman Dr, Champaign, IL 61822",Champaign,61822,2100,2.0,2.0,"$295,000",298000,40.14871,-88.250465,2100,2329,85,CONDO,64706.0,21.0,12,20.0,5.0,0.0,1.0,0.0,3.0,11.916666666666666,8.483333333333333,11.216666666666667,14.333333333333334,18.05
"203 Doisy Ln, Champaign, IL 61822",Champaign,61822,2249,3.0,3.0,"$357,000",361500,40.1504,-88.249466,2249,2748,109,SINGLE_FAMILY,72438.0,19.0,12,14.0,1.0,0.0,1.0,0.0,1.0,12.55,9.116666666666667,11.85,14.966666666666667,18.416666666666668
"2902 Stanley Ln, Champaign, IL 61822",Champaign,61822,2209,3.0,4.0,"$370,000",374200,40.15082,-88.24943,2209,2762,123,SINGLE_FAMILY,72438.0,17.0,12,13.0,1.0,0.0,1.0,0.0,1.0,12.55,9.116666666666667,11.866666666666667,14.966666666666667,18.433333333333334
"305 Doisy Ln, Champaign, IL 61822",Champaign,61822,2273,3.0,4.0,"$375,000",381000,40.15039,-88.25018,2273,2811,160,SINGLE_FAMILY,72438.0,19.0,12,15.0,1.0,0.0,1.0,0.0,1.0,12.25,8.816666666666666,11.55,14.666666666666666,18.116666666666667
"3214 Stanley Ln, Champaign, IL 61822",Champaign,61822,2132,3.0,3.0,"$360,290",366400,40.15422,-88.24948,2132,2719,162,SINGLE_FAMILY,72438.0,8.0,12,2.0,1.0,0.0,1.0,0.0,1.0,13.35,9.916666666666666,12.65,15.766666666666667,18.666666666666668
"3310 N Cunningham Ave, Urbana, IL 61802",Urbana,61802,1152,2.0,3.0,"$175,000",278400,40.148987,-88.18557,1152,1558,166,SINGLE_FAMILY,118750.0,4.0,,0.0,0.0,0.0,0.0,0.0,0.0,11.366666666666667,9.833333333333334,8.533333333333333,12.4,19.866666666666667
"305 Bardeen Ln, Champaign, IL 61822",Champaign,61822,1467,2.0,3.0,"$307,500",312900,40.15187,-88.25038,1467,2140,169,SINGLE_FAMILY,72438.0,13.0,12,8.0,1.0,0.0,1.0,0.0,1.0,12.5,9.066666666666666,11.8,14.916666666666666,17.916666666666668
"301 Doisy Ln, Champaign, IL 61822",Champaign,61822,2277,3.0,4.0,"$355,000",365700,40.150394,-88.249825,2277,2816,235,SINGLE_FAMILY,72438.0,20.0,12,14.0,1.0,0.0,1.0,0.0,1.0,12.333333333333334,8.9,11.633333333333333,14.75,18.2
"3615 N Cunningham Ave, Urbana, IL 61802",Urbana,61802,910,1.5,,"$200,000",238700,40.152718,-88.18538,910,1363,344,SINGLE_FAMILY,118750.0,0.0,,0.0,0.0,0.0,0.0,0.0,0.0,12.116666666666667,10.583333333333334,9.3,13.15,20.633333333333333
"3103 Stanley Ln, Champaign, IL 61822",Champaign,61822,2126,3.0,3.0,"$330,000",349100,40.152443,-88.25005,2126,2605,355,SINGLE_FAMILY,72438.0,0.0,12,5.0,1.0,0.0,1.0,0.0,1.0,12.85,9.416666666666666,12.166666666666666,15.266666666666667,18.266666666666666
"504 E Oaks Rd, Urbana, IL 61802",Urbana,61802,1896,4.0,4.0,"$320,000",346300,40.14965,-88.203064,1896,2529,414,SINGLE_FAMILY,118750.0,0.0,,0.0,0.0,0.0,0.0,0.0,0.0,10.666666666666666,9.683333333333334,8.583333333333334,12.283333333333333,19.716666666666665
"3202 Stanley Ln, Champaign, IL 61822",Champaign,61822,1536,2.0,3.0,"$261,410",279000,40.153397,-88.249466,1536,2247,428,SINGLE_FAMILY,72438.0,10.0,12,2.0,1.0,0.0,1.0,0.0,1.0,13.066666666666666,9.633333333333333,12.383333333333333,15.483333333333333,18.483333333333334
"3211 Stanley Ln, Champaign, IL 61822",Champaign,61822,1425,2.0,3.0,"$270,000",289300,40.154076,-88.250084,1425,2188,477,SINGLE_FAMILY,72438.0,8.0,12,2.0,1.0,0.0,1.0,0.0,1.0,13.3,9.866666666666667,12.6,15.716666666666667,18.716666666666665
"3406 Sharp Dr, Champaign, IL 61822",Champaign,61822,1433,2.0,3.0,"$255,000",273500,40.155598,-88.25064,1433,2243,482,SINGLE_FAMILY,72438.0,2.0,12,2.0,1.0,2.0,1.0,0.0,1.0,13.533333333333333,10.083333333333334,12.833333333333334,15.933333333333334,18.316666666666666
"1214 E Olympian Rd, Urbana, IL 61802",Urbana,61802,2892,3.0,3.0,"$695,000",747400,40.161514,-88.191765,2892,2873,495,SINGLE_FAMILY,118750.0,1.0,,0.0,0.0,0.0,0.0,0.0,0.0,13.9,12.366666666666667,11.066666666666666,14.933333333333334,22.4
"3306 Sharp Dr, Champaign, IL 61822",Champaign,61822,1230,2.0,2.0,"$190,000",224000,40.15491,-88.2506,1230,1952,760,SINGLE_FAMILY,72438.0,7.0,12,2.0,1.0,2.0,1.0,0.0,1.0,13.25,9.816666666666666,12.55,15.666666666666666,18.533333333333335
"3402 Sharp Dr, Champaign, IL 61822",Champaign,61822,1442,2.0,3.0,"$245,000",267400,40.155323,-88.25063,1442,2285,767,SINGLE_FAMILY,72438.0,7.0,12,2.0,1.0,2.0,1.0,0.0,1.0,13.433333333333334,10.0,12.733333333333333,15.85,18.416666666666668
"3913 Squire Farm Rd, Champaign, IL 61822",Champaign,61822,2826,2.0,3.0,"$350,000",393700,40.155968,-88.21608,2826,2712,805,SINGLE_FAMILY,118750.0,0.0,,1.0,0.0,0.0,0.0,0.0,0.0,11.266666666666667,10.283333333333333,9.183333333333334,12.883333333333333,20.316666666666666
"3209 Stanley Ln, Champaign, IL 61822",Champaign,61822,2266,3.0,4.0,"$310,000",353200,40.15394,-88.250084,2266,2898,932,SINGLE_FAMILY,72438.0,9.0,12,2.0,1.0,0.0,1.0,0.0,1.0,13.25,9.816666666666666,12.566666666666666,15.666666666666666,18.666666666666668
"3304 Sharp Dr, Champaign, IL 61822",Champaign,61822,1602,3.0,3.0,"$245,000",272800,40.154774,-88.25054,1602,2548,953,SINGLE_FAMILY,72438.0,8.0,12,2.0,1.0,2.0,1.0,0.0,1.0,13.2,9.766666666666667,12.5,15.616666666666667,18.483333333333334
"307 Doisy Ln, Champaign, IL 61822",Champaign,61822,1593,2.0,3.0,"$260,000",303500,40.15039,-88.25036,1593,2263,1014,SINGLE_FAMILY,72438.0,20.0,12,15.0,1.0,0.0,1.0,0.0,1.0,12.216666666666667,8.783333333333333,11.516666666666667,14.633333333333333,18.083333333333332
"304 Luria Ln, Champaign, IL 61822",Champaign,61822,2172,3.0,3.0,"$299,000",332300,40.154663,-88.249825,2172,2794,1029,SINGLE_FAMILY,72438.0,8.0,12,2.0,1.0,0.0,1.0,0.0,1.0,13.3,9.866666666666667,12.616666666666667,15.716666666666667,18.6
"304 Doisy Ln, Champaign, IL 61822",Champaign,61822,1524,2.0,3.0,"$245,000",294700,40.150856,-88.25019,1524,2203,1030,SINGLE_FAMILY,72438.0,18.0,12,14.0,1.0,0.0,1.0,0.0,1.0,12.25,8.816666666666666,11.55,14.666666666666666,18.116666666666667
"2751 J T Coffman Dr, Champaign, IL 61822",Champaign,61822,1910,3.0,3.0,"$249,000",295900,40.148308,-88.2503,1910,2268,1084,SINGLE_FAMILY,64706.0,20.0,12,20.0,5.0,0.0,1.0,0.0,3.0,11.716666666666667,8.283333333333333,11.033333333333333,14.133333333333333,17.866666666666667
"2412 E Green St, Urbana, IL 61802",Urbana,61802,1136,1.0,3.0,"$155,000",155300,40.110363,-88.175255,1136,1419,32,SINGLE_FAMILY,54583.0,35.0,,4.0,0.0,2.0,3.0,1.0,0.0,11.033333333333333,13.1,7.0,10.133333333333333,19.433333333333334
"408 Beringer Cir, Urbana, IL 61802",Urbana,61802,4832,4.0,5.0,"$538,000",538300,40.11624,-88.16839,4832,4060,32,SINGLE_FAMILY,-666666666.0,18.0,,1.0,0.0,0.0,1.0,0.0,1.0,12.116666666666667,13.7,8.3,12.233333333333333,20.05
"707 Dodson Dr W, Urbana, IL 61802",Urbana,61802,1967,3.0,3.0,"$260,000",260300,40.11958,-88.174065,1967,2511,34,SINGLE_FAMILY,-666666666.0,19.0,,4.0,0.0,0.0,1.0,0.0,0.0,11.15,12.733333333333333,7.333333333333333,11.25,20.25
"706 Dodson Dr W, Urbana, IL 61802",Urbana,61802,1324,2.0,4.0,"$241,900",242800,40.11931,-88.17342,1324,1977,46,SINGLE_FAMILY,-666666666.0,19.0,,4.0,0.0,0.0,1.0,0.0,1.0,11.466666666666667,13.05,7.65,11.566666666666666,20.166666666666668
"2002 Cindy Lynn St, Urbana, IL 61802",Urbana,61802,2573,2.5,,"$272,000",324400,40.13212,-88.16497,2573,2391,50,SINGLE_FAMILY,78500.0,8.0,,1.0,0.0,3.0,0.0,1.0,0.0,13.733333333333333,13.566666666666666,9.933333333333334,13.85,20.65
"1306 S Smith Rd, Urbana, IL 61802",Urbana,61802,1254,2.0,3.0,"$273,575",228700,40.102848,-88.17574,1254,2190,53,SINGLE_FAMILY,84683.0,34.0,,0.0,0.0,2.0,2.0,1.0,0.0,12.166666666666666,14.316666666666666,8.133333333333333,8.966666666666667,19.6
"2901 Haydon Dr, Urbana, IL 61802",Urbana,61802,1895,2.0,3.0,"$384,092",385700,40.118935,-88.16846,1895,2818,57,SINGLE_FAMILY,-666666666.0,13.0,,0.0,0.0,0.0,1.0,0.0,1.0,12.35,13.933333333333334,8.55,12.466666666666667,19.916666666666668
"308 S Glenn Dr, Urbana, IL 61802",Urbana,61802,925,1.0,3.0,"$120,000",120700,40.10941,-88.17502,925,1340,60,SINGLE_FAMILY,54583.0,34.0,,4.0,0.0,2.0,3.0,1.0,0.0,11.133333333333333,13.2,7.1,9.866666666666667,19.45
"2422 E Washington St, Urbana, IL 61802",Urbana,61802,925,1.0,3.0,"$118,000",118900,40.106014,-88.17411,925,1348,68,SINGLE_FAMILY,54583.0,31.0,,0.0,0.0,2.0,3.0,1.0,0.0,11.233333333333333,13.333333333333334,7.216666666666667,8.966666666666667,18.033333333333335
"306 Dodson Dr S, Urbana, IL 61802",Urbana,61802,925,1.0,2.0,"$112,000",172300,40.109634,-88.17595,925,1114,74,SINGLE_FAMILY,54583.0,13.0,,4.0,0.0,2.0,3.0,1.0,0.0,10.35,12.416666666666666,6.316666666666666,9.383333333333333,18.966666666666665
"1752 County Road 1850 N, Urbana, IL 61802",Urbana,61802,2338,4.0,4.0,"$532,000",535400,40.127438,-88.14924,2338,2872,75,SINGLE_FAMILY,78500.0,14.0,,0.0,0.0,0.0,0.0,0.0,0.0,13.883333333333333,15.483333333333333,10.083333333333334,14.283333333333333,20.816666666666666
"2815 Haydon Dr, Urbana, IL 61802",Urbana,61802,1894,2.0,3.0,"$401,100",403900,40.11906,-88.169624,1894,2999,76,SINGLE_FAMILY,-666666666.0,15.0,,0.0,0.0,0.0,1.0,0.0,1.0,12.116666666666667,13.7,8.3,12.216666666666667,20.383333333333333
"2705 Arlene Dr, Urbana, IL 61802",Urbana,61802,1653,2.0,3.0,"$252,500",254400,40.141224,-88.17242,1653,2176,81,SINGLE_FAMILY,63643.0,14.0,,0.0,0.0,2.0,1.0,0.0,0.0,12.583333333333334,11.05,9.75,13.616666666666667,21.083333333333332
"1304 S Smith Rd, Urbana, IL 61802",Urbana,61802,1400,3.0,3.0,"$240,900",240200,40.10297,-88.17575,1400,2381,85,SINGLE_FAMILY,84683.0,31.0,,0.0,0.0,2.0,2.0,1.0,0.0,12.1,14.266666666666667,8.083333333333334,9.016666666666667,19.65
"603 S Sunrise Dr, Urbana, IL 61802",Urbana,61802,1073,2.0,3.0,"$146,000",147600,40.107742,-88.16852,1073,1558,89,SINGLE_FAMILY,54583.0,3.0,,1.0,0.0,2.0,2.0,0.0,1.0,12.0,13.966666666666667,7.966666666666667,10.583333333333334,18.133333333333333
"307 Dodson Dr W, Urbana, IL 61802",Urbana,61802,1269,2.0,3.0,"$195,000",197100,40.115646,-88.17368,1269,1932,90,SINGLE_FAMILY,-666666666.0,23.0,,4.0,0.0,0.0,1.0,0.0,1.0,10.466666666666667,12.066666666666666,6.666666666666667,10.583333333333334,19.183333333333334
"405 N Abbey Rd, Urbana, IL 61802",Urbana,61802,3035,3.0,4.0,"$350,000",353600,40.115932,-88.171684,3035,3226,96,SINGLE_FAMILY,-666666666.0,19.0,,4.0,0.0,0.0,2.0,0.0,1.0,10.833333333333334,12.416666666666666,7.016666666666667,10.933333333333334,19.1
"2406 N Skyline Dr, Urbana, IL 61802",Urbana,61802,1750,2.0,3.0,"$280,000",283000,40.138573,-88.180984,1750,2643,98,SINGLE_FAMILY,63643.0,23.0,,0.0,0.0,0.0,0.0,0.0,0.0,12.65,11.116666666666667,9.833333333333334,13.7,21.166666666666668
"2808 Haydon Dr, Urbana, IL 61802",Urbana,61802,1837,3.0,4.0,"$389,718",394400,40.119884,-88.17044,1837,2929,102,SINGLE_FAMILY,-666666666.0,15.0,,0.0,0.0,0.0,0.0,0.0,1.0,11.9,13.5,8.1,12.016666666666667,20.166666666666668
"2822 Haydon Dr, Urbana, IL 61802",Urbana,61802,1939,3.0,3.0,"$409,900",414800,40.11965,-88.168465,1939,3004,104,SINGLE_FAMILY,-666666666.0,19.0,,0.0,0.0,0.0,1.0,0.0,1.0,12.35,13.933333333333334,8.533333333333333,12.45,19.916666666666668
"2817 Haydon Dr, Urbana, IL 61802",Urbana,61802,1944,3.0,4.0,"$399,900",404700,40.119026,-88.16934,1944,2820,104,SINGLE_FAMILY,-666666666.0,14.0,,0.0,0.0,0.0,1.0,0.0,1.0,12.166666666666666,13.766666666666667,8.366666666666667,12.283333333333333,20.1
"2502 Somerset Dr, Urbana, IL 61802",Urbana,61802,2405,3.0,4.0,"$328,500",330300,40.138645,-88.174095,2405,2882,109,SINGLE_FAMILY,63643.0,14.0,,0.0,0.0,0.0,0.0,0.0,0.0,12.583333333333334,11.05,9.766666666666667,13.616666666666667,21.083333333333332
"2409 N High Cross Rd, Urbana, IL 61802",Urbana,61802,5800,5.0,5.0,$1.08M,1112700,40.13819,-88.166115,5800,4926,113,SINGLE_FAMILY,78500.0,14.0,,1.0,0.0,3.0,1.0,1.0,0.0,13.583333333333334,12.033333333333333,9.783333333333333,13.7,20.5
"102 N Smith Rd, Urbana, IL 61802",Urbana,61802,1346,2.0,3.0,"$187,500",190000,40.113274,-88.17817,1346,1608,115,MULTI_FAMILY,-666666666.0,32.0,,4.0,0.0,2.0,3.0,1.0,0.0,9.6,11.45,5.566666666666666,9.483333333333333,19.45
"2708 E Perkins Rd, Urbana, IL 61802",Urbana,61802,2600,2.0,3.0,"$321,000",325400,40.128002,-88.1707,2600,2010,117,SINGLE_FAMILY,78500.0,15.0,,1.0,0.0,0.0,0.0,0.0,0.0,11.533333333333333,12.783333333333333,8.716666666666667,12.583333333333334,20.183333333333334
"200 Ennis Ln, Urbana, IL 61802",Urbana,61802,1378,2.0,3.0,"$130,000",131400,40.11115,-88.1712,1378,1669,117,SINGLE_FAMILY,54583.0,17.0,,4.0,0.0,2.0,2.0,0.0,1.0,10.85,12.916666666666666,6.816666666666666,10.733333333333333,19.416666666666668
"2709 E Coddington Cir, Urbana, IL 61802",Urbana,61802,2144,2.0,3.0,"$310,000",325300,40.11392,-88.1707,2144,2353,117,SINGLE_FAMILY,-666666666.0,23.0,,5.0,0.0,0.0,2.0,0.0,1.0,10.8,12.383333333333333,7.0,10.916666666666666,19.066666666666666
"2708 E Perkins Rd, Urbana, IL 61802",Urbana,61802,2562,2.0,3.0,"$321,000",324600,40.128002,-88.1707,2562,2011,120,SINGLE_FAMILY,78500.0,10.0,,1.0,0.0,0.0,0.0,0.0,0.0,11.533333333333333,12.783333333333333,8.716666666666667,12.583333333333334,20.183333333333334
"2609 Brownfield Rd, Urbana, IL 61802",Urbana,61802,1400,2.0,3.0,"$113,500",225600,40.140755,-88.17102,1400,1796,125,SINGLE_FAMILY,63643.0,14.0,,0.0,0.0,3.0,1.0,1.0,0.0,12.066666666666666,11.216666666666667,9.25,13.1,22.166666666666668
"1901 N Lincoln Ave APT 201, Urbana, IL 61801",Urbana,61801,1540,4.0,4.0,"$181,500",181700,40.129936,-88.2201,1540,2346,32,CONDO,-666666666.0,20.0,,3.0,1.0,0.0,3.0,1.0,0.0,6.6,6.666666666666667,4.516666666666667,8.233333333333333,17.883333333333333
"706 S Coler Ave APT 2, Urbana, IL 61801",Urbana,61801,1463,1.0,2.0,"$163,500",163600,40.106705,-88.21579,1463,1149,32,CONDO,34013.0,57.0,,20.0,16.0,10.0,7.0,5.0,2.0,6.083333333333333,8.866666666666667,2.5166666666666666,4.616666666666666,16.466666666666665
"1403 English Oak Dr, Champaign, IL 61822",Champaign,61822,2420,4.0,4.0,"$607,000",607900,40.10178,-88.32822,2420,3622,34,SINGLE_FAMILY,60603.0,4.0,24,0.0,0.0,0.0,2.0,0.0,0.0,16.133333333333333,13.916666666666666,17.266666666666666,12.916666666666666,12.366666666666667
"2001 Mullikin Dr, Champaign, IL 61822",Champaign,61822,2380,4.0,4.0,"$450,000",450500,40.090706,-88.32199,2380,3283,42,SINGLE_FAMILY,173636.0,34.0,24,0.0,0.0,1.0,3.0,0.0,0.0,16.383333333333333,14.183333333333334,17.533333333333335,13.183333333333334,10.916666666666666
"1604 Chestnut Grove Ct, Champaign, IL 61822",Champaign,61822,2474,4.0,4.0,"$686,000",699700,40.097027,-88.32536,2474,3617,46,SINGLE_FAMILY,173636.0,33.0,24,0.0,0.0,1.0,1.0,0.0,0.0,16.566666666666666,14.35,17.716666666666665,13.366666666666667,12.816666666666666
"5105 Jacks Blvd, Champaign, IL 61822",Champaign,61822,2622,4.0,5.0,"$486,000",488300,40.089985,-88.33022,2622,3308,53,SINGLE_FAMILY,173636.0,12.0,24,0.0,0.0,0.0,3.0,0.0,0.0,16.95,14.733333333333333,18.1,14.283333333333333,11.45
"4906 Watermark Dr, Champaign, IL 61822",Champaign,61822,2233,4.0,5.0,"$494,900",496700,40.087723,-88.327415,2233,3211,55,SINGLE_FAMILY,173636.0,13.0,24,0.0,0.0,0.0,3.0,0.0,0.0,18.033333333333335,15.816666666666666,18.983333333333334,14.15,11.433333333333334
"4905 Peifer Ln, Champaign, IL 61822",Champaign,61822,2954,4.0,5.0,"$815,000",819100,40.093536,-88.3272,2954,3965,60,SINGLE_FAMILY,173636.0,15.0,24,0.0,0.0,0.0,2.0,0.0,0.0,16.916666666666668,14.7,18.066666666666666,13.716666666666667,12.166666666666666
"1709 Brighton Ct, Champaign, IL 61822",Champaign,61822,4163,7.0,4.0,"$759,000",764700,40.09553,-88.31946,4163,5664,68,SINGLE_FAMILY,173636.0,15.0,24,0.0,0.0,1.0,1.0,0.0,0.0,16.116666666666667,13.9,17.266666666666666,12.866666666666667,11.683333333333334
"1603 English Oak Dr, Champaign, IL 61822",Champaign,61822,2832,4.0,5.0,"$600,000",602800,40.09784,-88.328224,2832,3935,70,SINGLE_FAMILY,173636.0,8.0,24,0.0,0.0,1.0,2.0,0.0,0.0,16.083333333333332,13.866666666666667,17.233333333333334,12.883333333333333,12.333333333333334
"1812 Savanna Dr, Champaign, IL 61822",Champaign,61822,2870,4.0,5.0,"$635,000",639300,40.093212,-88.32745,2870,3861,77,SINGLE_FAMILY,173636.0,15.0,24,0.0,0.0,0.0,2.0,0.0,0.0,16.783333333333335,14.566666666666666,17.933333333333334,13.583333333333334,12.383333333333333
"3133 Palmer Dr, Champaign, IL 61822",Champaign,61822,1944,3.0,3.0,"$415,000",418000,40.073982,-88.318245,1944,2867,77,SINGLE_FAMILY,60603.0,3.0,24,4.0,1.0,1.0,1.0,1.0,0.0,18.1,15.883333333333333,18.533333333333335,13.683333333333334,9.05
"2303 Blanche Ln, Champaign, IL 61822",Champaign,61822,1580,3.0,3.0,"$285,000",287000,40.087032,-88.325905,1580,2251,78,TOWNHOUSE,173636.0,3.0,24,0.0,0.0,0.0,3.0,0.0,0.0,17.816666666666666,15.6,18.466666666666665,13.616666666666667,10.9
"1411 Jacobs Blvd, Champaign, IL 61822",Champaign,61822,2994,4.0,5.0,"$640,000",644100,40.101887,-88.32931,2994,4261,81,SINGLE_FAMILY,60603.0,3.0,24,0.0,0.0,0.0,2.0,0.0,0.0,16.966666666666665,14.75,18.116666666666667,13.766666666666667,13.216666666666667
"5001 Sandcherry Dr, Champaign, IL 61822",Champaign,61822,2769,4.0,6.0,"$605,000",610100,40.095257,-88.32996,2769,4341,85,SINGLE_FAMILY,173636.0,3.0,24,0.0,0.0,0.0,1.0,0.0,0.0,16.966666666666665,14.766666666666667,18.116666666666667,13.766666666666667,12.383333333333333
"2105 Savanna Dr, Champaign, IL 61822",Champaign,61822,1920,4.0,4.0,"$450,000",464200,40.0892,-88.32805,1920,2850,85,SINGLE_FAMILY,173636.0,12.0,24,0.0,0.0,0.0,3.0,0.0,0.0,18.05,15.833333333333334,19.2,14.7,11.983333333333333
"4701 Chestnut Grove Dr, Champaign, IL 61822",Champaign,61822,2494,4.0,6.0,"$535,000",539000,40.095997,-88.32473,2494,4185,88,SINGLE_FAMILY,173636.0,7.0,24,0.0,0.0,1.0,1.0,0.0,0.0,16.8,14.583333333333334,17.95,13.6,13.05
"4603 Stonebridge Dr, Champaign, IL 61822",Champaign,61822,2082,4.0,4.0,"$383,000",386000,40.088173,-88.32175,2082,3182,90,SINGLE_FAMILY,173636.0,28.0,24,0.0,0.0,0.0,3.0,0.0,0.0,16.6,14.4,17.75,13.25,10.55
"4804 Westborough Dr, Champaign, IL 61822",Champaign,61822,2928,4.0,4.0,"$570,000",574600,40.09491,-88.32592,2928,3934,92,SINGLE_FAMILY,173636.0,17.0,24,0.0,0.0,1.0,1.0,0.0,0.0,16.2,13.983333333333333,17.333333333333332,12.983333333333333,11.8
"1613 English Oak Dr, Champaign, IL 61822",Champaign,61822,2839,4.0,5.0,"$646,000",652900,40.096695,-88.32876,2839,4128,98,SINGLE_FAMILY,173636.0,9.0,24,0.0,0.0,0.0,1.0,0.0,0.0,16.2,13.983333333333333,17.333333333333332,12.983333333333333,12.433333333333334
"1505 English Oak Dr, Champaign, IL 61822",Champaign,61822,3055,5.0,5.0,"$625,000",631800,40.099968,-88.328186,3055,4470,99,SINGLE_FAMILY,60603.0,7.0,24,0.0,0.0,0.0,2.0,0.0,0.0,15.716666666666667,13.5,16.85,12.516666666666667,11.966666666666667
"4707 Chestnut Grove Dr, Champaign, IL 61822",Champaign,61822,3418,5.0,5.0,"$825,000",777000,40.096767,-88.32476,3418,4835,102,SINGLE_FAMILY,173636.0,18.0,24,0.0,0.0,1.0,1.0,0.0,0.0,16.583333333333332,14.366666666666667,17.716666666666665,13.383333333333333,12.833333333333334
"4620 Copper Ridge Rd, Champaign, IL 61822",Champaign,61822,1520,3.0,3.0,"$278,000",291300,40.08499,-88.32262,1520,2152,116,MULTI_FAMILY,173636.0,23.0,24,0.0,0.0,0.0,4.0,0.0,0.0,17.033333333333335,14.883333333333333,17.533333333333335,12.683333333333334,9.983333333333333
"5022 Abbey Fields Dr, Champaign, IL 61822",Champaign,61822,1962,4.0,5.0,"$565,000",571100,40.100193,-88.33205,1962,3669,118,SINGLE_FAMILY,60603.0,18.0,24,0.0,0.0,0.0,2.0,0.0,0.0,17.116666666666667,14.916666666666666,18.266666666666666,13.916666666666666,13.366666666666667
"4804 Chestnut Grove Dr, Champaign, IL 61822",Champaign,61822,1984,4.0,4.0,"$565,000",571700,40.09829,-88.32524,1984,3272,127,SINGLE_FAMILY,173636.0,25.0,24,0.0,0.0,1.0,2.0,0.0,0.0,16.183333333333334,13.966666666666667,17.316666666666666,12.983333333333333,12.433333333333334
"2317 Blanche Ln, Champaign, IL 61822",Champaign,61822,1500,4.0,4.0,"$286,000",289400,40.086376,-88.3259,1500,2480,127,TOWNHOUSE,173636.0,17.0,24,0.0,0.0,0.0,3.0,0.0,0.0,17.6,15.383333333333333,18.25,13.4,10.7
"4508 Copper Ridge Rd, Champaign, IL 61822",Champaign,61822,2709,3.0,4.0,"$410,000",415300,40.08498,-88.31883,2709,3424,130,SINGLE_FAMILY,173636.0,30.0,24,0.0,0.0,1.0,3.0,1.0,0.0,16.983333333333334,14.766666666666667,17.216666666666665,12.366666666666667,9.65
"1404 English Oak Dr, Champaign, IL 61822",Champaign,61822,4965,6.0,6.0,"$875,000",885800,40.101807,-88.32744,4965,5669,131,SINGLE_FAMILY,60603.0,30.0,24,0.0,0.0,0.0,2.0,0.0,0.0,16.133333333333333,13.916666666666666,17.283333333333335,12.933333333333334,12.383333333333333
"4805 Peifer Ln, Champaign, IL 61822",Champaign,61822,3364,5.0,7.0,"$720,000",729400,40.09354,-88.32633,3364,5061,137,SINGLE_FAMILY,173636.0,18.0,24,0.0,0.0,1.0,2.0,0.0,0.0,17.316666666666666,15.1,18.466666666666665,13.916666666666666,11.95
"4405 Trostshire Cir, Champaign, IL 61822",Champaign,61822,4860,7.0,5.0,"$877,500",889200,40.09634,-88.32095,4860,5779,139,SINGLE_FAMILY,173636.0,29.0,24,0.0,0.0,1.0,1.0,0.0,0.0,15.866666666666667,13.65,17.0,12.65,12.1
"1612 Sandcherry Ct, Champaign, IL 61822",Champaign,61822,3781,6.0,5.0,"$860,000",872000,40.097103,-88.332,3781,5052,144,SINGLE_FAMILY,173636.0,4.0,24,0.0,0.0,0.0,1.0,0.0,0.0,16.766666666666666,14.55,17.916666666666668,14.1,12.266666666666667
"4628 Copper Ridge Rd, Champaign, IL 61822",Champaign,61822,1683,3.0,3.0,"$292,000",296600,40.084946,-88.32315,1683,1896,159,MULTI_FAMILY,173636.0,22.0,24,0.0,0.0,0.0,3.0,0.0,0.0,17.1,14.95,17.6,12.75,10.05
"1909 Savanna Dr, Champaign, IL 61822",Champaign,61822,2806,4.0,6.0,"$600,000",609600,40.09179,-88.32808,2806,3420,160,SINGLE_FAMILY,173636.0,15.0,24,0.0,0.0,0.0,3.0,0.0,0.0,17.083333333333332,14.866666666666667,18.216666666666665,13.866666666666667,12.566666666666666
"4809 Chestnut Grove Dr, Champaign, IL 61822",Champaign,61822,3000,5.0,5.0,"$784,000",797400,40.097805,-88.32748,3000,4489,167,SINGLE_FAMILY,173636.0,15.0,24,0.0,0.0,1.0,2.0,0.0,0.0,18.733333333333334,16.516666666666666,19.883333333333333,15.533333333333333,14.983333333333333
"3127 Palmer Dr, Champaign, IL 61822",Champaign,61822,1776,3.0,3.0,"$398,000",405200,40.074314,-88.318245,1776,2670,172,SINGLE_FAMILY,60603.0,10.0,24,4.0,1.0,1.0,1.0,1.0,0.0,17.883333333333333,15.666666666666666,18.316666666666666,13.466666666666667,8.933333333333334
"1810 Benodot St, Champaign, IL 61822",Champaign,61822,2784,3.0,4.0,"$470,000",480200,40.093224,-88.3239,2784,3436,194,SINGLE_FAMILY,173636.0,22.0,24,0.0,0.0,1.0,2.0,0.0,0.0,16.433333333333334,14.216666666666667,17.583333333333332,13.233333333333333,11.65
"5 Golfview Dr, Savoy, IL 61874",Savoy,61874,1645,3.0,3.0,"$318,500",319600,40.053505,-88.25761,1645,2347,50,SINGLE_FAMILY,82794.0,2.0,,6.0,0.0,1.0,5.0,2.0,1.0,13.916666666666666,12.45,14.4,9.55,4.866666666666666
"1415 Warwick Dr, Savoy, IL 61874",Savoy,61874,1970,3.0,3.0,"$409,900",412000,40.033707,-88.25218,1970,2801,61,SINGLE_FAMILY,161012.0,0.0,,0.0,0.0,0.0,0.0,0.0,0.0,16.216666666666665,14.75,16.416666666666668,11.566666666666666,9.266666666666667
"1407 Winterberry Rd, Savoy, IL 61874",Savoy,61874,2797,4.0,5.0,"$545,000",548800,40.034912,-88.25081,2797,3642,64,SINGLE_FAMILY,161012.0,0.0,,0.0,0.0,0.0,0.0,0.0,0.0,15.583333333333334,14.116666666666667,15.783333333333333,10.933333333333334,8.633333333333333
"39 Parsley Dr, Savoy, IL 61874",Savoy,61874,1975,3.0,3.0,"$309,000",321400,40.04861,-88.25374,1975,2461,102,SINGLE_FAMILY,82794.0,2.0,,2.0,0.0,1.0,4.0,0.0,0.0,14.65,13.2,15.133333333333333,10.283333333333333,7.7
"211 Capitol St, Savoy, IL 61874",Savoy,61874,1686,3.0,5.0,"$400,000",404700,40.056686,-88.27518,1686,2562,126,SINGLE_FAMILY,126458.0,0.0,,0.0,0.0,0.0,2.0,0.0,0.0,15.583333333333334,14.383333333333333,16.066666666666666,11.216666666666667,4.25
"201 W Church St, Savoy, IL 61874",Savoy,61874,768,1.0,2.0,"$260,000",264900,40.05415,-88.25326,768,1497,173,SINGLE_FAMILY,82794.0,2.0,,6.0,0.0,1.0,4.0,2.0,1.0,12.633333333333333,11.183333333333334,13.116666666666667,8.283333333333333,4.9
"205 W Church St, Savoy, IL 61874",Savoy,61874,1025,1.0,2.0,"$200,000",203700,40.054024,-88.25358,1025,1685,173,SINGLE_FAMILY,82794.0,0.0,,6.0,0.0,1.0,4.0,2.0,1.0,12.683333333333334,11.233333333333333,13.166666666666666,8.333333333333334,4.833333333333333
"102 Summerbrook Dr, Savoy, IL 61874",Savoy,61874,1970,3.0,3.0,"$411,630",420600,40.035793,-88.25094,1970,2813,190,SINGLE_FAMILY,161012.0,2.0,,0.0,0.0,0.0,0.0,0.0,0.0,15.316666666666666,13.866666666666667,15.533333333333333,10.683333333333334,8.383333333333333
"504 W Church St, Savoy, IL 61874",Savoy,61874,2000,2.0,3.0,"$340,000",348100,40.054825,-88.25825,2000,2508,203,SINGLE_FAMILY,126458.0,2.0,,6.0,0.0,1.0,5.0,2.0,1.0,13.283333333333333,11.816666666666666,13.766666666666667,8.916666666666666,4.233333333333333
"305 Sutton St, Savoy, IL 61874",Savoy,61874,2148,4.0,4.0,"$482,000",493800,40.04861,-88.25374,2148,3072,207,SINGLE_FAMILY,82794.0,2.0,,2.0,0.0,1.0,4.0,0.0,0.0,14.65,13.2,15.133333333333333,10.283333333333333,7.7
"1403 Winterberry Dr, Savoy, IL 61874",Savoy,61874,2403,4.0,5.0,"$445,000",456200,40.03495,-88.251144,2403,3380,211,SINGLE_FAMILY,161012.0,0.0,,0.0,0.0,0.0,0.0,0.0,0.0,15.566666666666666,14.1,15.766666666666667,10.916666666666666,8.616666666666667
"1208 Ridge Creek Rd, Savoy, IL 61874",Savoy,61874,2571,4.0,4.0,"$475,000",498200,40.038628,-88.25079,2571,3044,228,SINGLE_FAMILY,161012.0,0.0,,0.0,0.0,0.0,0.0,0.0,0.0,14.55,13.083333333333334,14.75,9.9,7.6
"89 Shiloh Dr, Savoy, IL 61874",Savoy,61874,1788,3.0,4.0,"$436,500",451000,40.0323,-88.252304,1788,2641,249,SINGLE_FAMILY,161012.0,0.0,,0.0,0.0,0.0,0.0,0.0,0.0,16.85,15.383333333333333,17.316666666666666,12.466666666666667,9.9
"202 Capitol St, Savoy, IL 61874",Savoy,61874,2236,4.0,5.0,"$443,000",465300,40.056313,-88.274086,2236,3320,315,SINGLE_FAMILY,126458.0,0.0,,0.0,0.0,0.0,2.0,0.0,0.0,15.866666666666667,14.666666666666666,16.366666666666667,11.516666666666667,4.533333333333333
"203 Potomac Ave, Savoy, IL 61874",Savoy,61874,1831,3.0,4.0,"$491,000",516800,40.056713,-88.273964,1831,2607,316,SINGLE_FAMILY,126458.0,0.0,,0.0,0.0,0.0,2.0,0.0,0.0,16.133333333333333,14.916666666666666,16.616666666666667,11.766666666666667,5.25
"204 Ellen Ave, Savoy, IL 61874",Savoy,61874,2034,3.0,5.0,"$255,000",330600,40.05282,-88.25305,2034,3265,356,SINGLE_FAMILY,82794.0,3.0,,6.0,0.0,1.0,4.0,2.0,1.0,13.666666666666666,12.2,14.15,9.3,5.583333333333333
"28 Lange Ave, Savoy, IL 61874",Savoy,61874,2060,2.0,4.0,"$262,000",276500,40.0504,-88.25454,2060,2882,361,SINGLE_FAMILY,82794.0,2.0,,4.0,0.0,1.0,4.0,2.0,0.0,14.1,12.633333333333333,14.583333333333334,9.733333333333333,6.016666666666667
"501 W Church St, Savoy, IL 61874",Savoy,61874,1726,2.0,3.0,"$295,000",310100,40.054214,-88.257545,1726,2448,368,SINGLE_FAMILY,82794.0,2.0,,6.0,0.0,1.0,5.0,2.0,1.0,13.5,12.05,13.983333333333333,9.15,4.633333333333334
"1191 County Road 800 E, Champaign, IL 61822",Champaign,61822,2755,3.0,4.0,"$376,000",398900,40.053406,-88.31435,2755,3393,384,SINGLE_FAMILY,85000.0,2.0,,0.0,0.0,0.0,0.0,0.0,0.0,18.733333333333334,14.933333333333334,17.95,14.366666666666667,6.633333333333334
"1221 Ridge Creek Rd, Savoy, IL 61874",Savoy,61874,2350,4.0,4.0,"$455,000",482800,40.037796,-88.251236,2350,2960,385,SINGLE_FAMILY,161012.0,2.0,,0.0,0.0,0.0,0.0,0.0,0.0,14.683333333333334,13.233333333333333,14.9,10.05,7.75
"91 Shiloh Dr, Savoy, IL 61874",Savoy,61874,1970,3.0,3.0,"$393,000",418000,40.032303,-88.252075,1970,2865,410,SINGLE_FAMILY,161012.0,3.0,,0.0,0.0,0.0,0.0,0.0,0.0,16.783333333333335,15.316666666666666,17.25,12.4,9.833333333333334
"1401 Warwick Dr, Savoy, IL 61874",Savoy,61874,2308,4.0,5.0,"$455,000",492700,40.03511,-88.25221,2308,3439,411,SINGLE_FAMILY,161012.0,0.0,,0.0,0.0,0.0,0.0,0.0,0.0,15.783333333333333,14.316666666666666,15.983333333333333,11.133333333333333,8.833333333333334
"205 W Green St #3, Savoy, IL 61874",Savoy,61874,1272,2.0,3.0,"$190,000",202800,40.056217,-88.25405,1272,2201,432,SINGLE_FAMILY,126458.0,3.0,,6.0,0.0,1.0,4.0,2.0,1.0,13.583333333333334,12.116666666666667,14.066666666666666,9.216666666666667,5.833333333333333
"303 Sutton St, Savoy, IL 61874",Savoy,61874,2238,4.0,4.0,"$484,900",518100,40.04861,-88.25374,2238,3230,439,SINGLE_FAMILY,82794.0,2.0,,2.0,0.0,1.0,4.0,0.0,0.0,14.65,13.2,15.133333333333333,10.283333333333333,7.7
"205 W Green St, Savoy, IL 61874",Savoy,61874,1272,2.0,3.0,"$189,900",202300,40.056217,-88.25405,1272,2135,442,SINGLE_FAMILY,126458.0,3.0,,6.0,0.0,1.0,4.0,2.0,1.0,13.583333333333334,12.116666666666667,14.066666666666666,9.216666666666667,5.833333333333333
"307 Sutton St, Savoy, IL 61874",Savoy,61874,2315,4.0,5.0,"$470,000",501900,40.04861,-88.25374,2315,3405,454,SINGLE_FAMILY,82794.0,2.0,,2.0,0.0,1.0,4.0,0.0,0.0,14.65,13.2,15.133333333333333,10.283333333333333,7.7
"4310 Summer Field Rd, Champaign, IL 61822",Champaign,61822,3736,4.0,5.0,"$540,000",591800,40.05543,-88.323784,3736,4671,798,SINGLE_FAMILY,60603.0,0.0,,0.0,0.0,0.0,0.0,0.0,0.0,18.716666666666665,14.916666666666666,17.933333333333334,14.35,6.616666666666666
"407 Banbury Ln, Savoy, IL 61874",Savoy,61874,2182,3.0,3.0,"$410,000",411600,40.053524,-88.24458,2182,2172,53,SINGLE_FAMILY,161012.0,3.0,,5.0,0.0,2.0,6.0,1.0,0.0,13.65,12.433333333333334,12.866666666666667,8.016666666666667,6.916666666666667
"1101 Cascade Dr, Savoy, IL 61874",Savoy,61874,3013,4.0,7.0,"$720,000",722300,40.041664,-88.24267,3013,4482,53,SINGLE_FAMILY,161012.0,0.0,,0.0,0.0,0.0,0.0,0.0,0.0,14.866666666666667,14.05,14.083333333333334,9.233333333333333,8.55
"201 Bradford Ave, Savoy, IL 61874",Savoy,61874,2022,4.0,4.0,"$485,000",488100,40.05278,-88.24786,2022,2696,60,SINGLE_FAMILY,161012.0,3.0,,6.0,0.0,2.0,6.0,2.0,1.0,13.55,12.083333333333334,13.183333333333334,8.333333333333334,6.566666666666666
"107 Bradford Ave, Savoy, IL 61874",Savoy,61874,1948,4.0,4.0,"$426,000",429400,40.053352,-88.24787,1948,2630,71,SINGLE_FAMILY,161012.0,3.0,,6.0,0.0,2.0,6.0,2.0,1.0,13.383333333333333,11.916666666666666,13.016666666666667,8.166666666666666,6.416666666666667
"5 Cedar Grove Ct, Savoy, IL 61874",Savoy,61874,2392,5.0,5.0,"$545,000",547900,40.0379,-88.24969,2392,3651,74,SINGLE_FAMILY,161012.0,3.0,,0.0,0.0,0.0,0.0,0.0,0.0,15.483333333333333,14.016666666666667,15.166666666666666,10.316666666666666,8.533333333333333
"107 Gentian, Savoy, IL 61874",Savoy,61874,2001,4.0,4.0,"$385,000",388500,40.056484,-88.24807,2001,2731,88,SINGLE_FAMILY,150129.0,0.0,,5.0,0.0,2.0,6.0,2.0,1.0,14.4,12.95,14.433333333333334,9.6,7.433333333333334
"103 Portsmouth Ln UNIT 4, Savoy, IL 61874",Savoy,61874,1346,2.0,2.0,"$220,000",221700,40.05578,-88.2475,1346,1559,89,CONDO,150129.0,2.0,,5.0,0.0,2.0,6.0,2.0,1.0,14.05,12.583333333333334,13.8,8.95,7.066666666666666
"108 Astoria Dr, Savoy, IL 61874",Savoy,61874,1684,3.0,5.0,"$470,000",475000,40.033688,-88.24973,1684,2607,97,SINGLE_FAMILY,161012.0,0.0,,0.0,0.0,0.0,0.0,0.0,0.0,16.566666666666666,15.1,16.266666666666666,11.416666666666666,9.616666666666667
"105 Astoria Dr, Savoy, IL 61874",Savoy,61874,2183,4.0,4.0,"$543,000",548800,40.033188,-88.24998,2183,3256,97,SINGLE_FAMILY,161012.0,3.0,,0.0,0.0,0.0,0.0,0.0,0.0,16.3,14.833333333333334,16.333333333333332,11.483333333333333,9.35
"44 Parsley, Savoy, IL 61874",Savoy,61874,1600,2.5,3.0,"$309,000",307100,40.05462,-88.24081,1600,2090,109,SINGLE_FAMILY,150129.0,3.0,,1.0,0.0,1.0,3.0,0.0,0.0,12.85,12.133333333333333,12.05,7.2,6.633333333333334
"112 Shiloh Dr, Savoy, IL 61874",Savoy,61874,1970,3.0,3.0,"$395,000",399000,40.03286,-88.24918,1970,2801,110,SINGLE_FAMILY,161012.0,0.0,,0.0,0.0,0.0,0.0,0.0,0.0,16.633333333333333,15.166666666666666,16.316666666666666,11.466666666666667,9.683333333333334
"103 Yorkminster Ln UNIT 9, Savoy, IL 61874",Savoy,61874,1225,2.0,2.0,"$216,300",218500,40.054825,-88.2478,1225,1492,113,CONDO,150129.0,2.0,,6.0,0.0,2.0,6.0,2.0,1.0,13.85,12.383333333333333,13.65,8.8,6.866666666666666
"104 Yorkminster Ln UNIT 10, Savoy, IL 61874",Savoy,61874,2600,2.0,2.0,"$217,000",219800,40.055252,-88.24763,2600,1493,117,CONDO,150129.0,0.0,,5.0,0.0,2.0,6.0,2.0,1.0,13.816666666666666,12.366666666666667,13.583333333333334,8.733333333333333,6.85
"104 Yorkminster Ln UNIT 10, Savoy, IL 61874",Savoy,61874,1225,2.0,2.0,"$217,000",219500,40.05506,-88.24775,1225,1493,123,CONDO,150129.0,2.0,,6.0,0.0,2.0,6.0,2.0,1.0,13.866666666666667,12.4,13.633333333333333,8.783333333333333,6.883333333333334
"308 Banbury Ln, Savoy, IL 61874",Savoy,61874,2100,3.0,4.0,"$381,000",385600,40.05403,-88.246124,2100,2464,130,SINGLE_FAMILY,161012.0,2.0,,5.0,0.0,2.0,6.0,2.0,1.0,13.533333333333333,12.066666666666666,13.166666666666666,8.316666666666666,6.55
"10 Fletcher Ct, Savoy, IL 61874",Savoy,61874,2704,4.0,5.0,"$585,000",591500,40.04211,-88.23874,2704,3655,130,SINGLE_FAMILY,161012.0,0.0,,0.0,0.0,0.0,0.0,0.0,0.0,14.45,14.366666666666667,13.666666666666666,8.816666666666666,8.85
"210 Denton Dr, Savoy, IL 61874",Savoy,61874,2216,4.0,5.0,"$445,000",450500,40.05199,-88.24321,2216,2796,131,SINGLE_FAMILY,161012.0,2.0,,2.0,0.0,1.0,3.0,0.0,0.0,13.766666666666667,12.566666666666666,12.983333333333333,8.133333333333333,7.066666666666666
"5 Parsley, Savoy, IL 61874",Savoy,61874,1734,4.0,3.0,"$306,000",309800,40.055054,-88.241905,1734,1775,133,MULTI_FAMILY,150129.0,2.0,,2.0,0.0,1.0,3.0,0.0,0.0,13.7,12.766666666666667,12.916666666666666,8.066666666666666,7.25
"411 Newhaven Ln, Savoy, IL 61874",Savoy,61874,2050,4.0,5.0,"$460,000",464200,40.05188,-88.24405,2050,2825,139,SINGLE_FAMILY,161012.0,2.0,,2.0,0.0,1.0,4.0,0.0,0.0,13.966666666666667,12.766666666666667,13.183333333333334,8.333333333333334,7.266666666666667
"102 Astoria Dr, Savoy, IL 61874",Savoy,61874,2305,4.0,5.0,"$488,000",494800,40.0334,-88.2504,2305,3390,144,SINGLE_FAMILY,161012.0,0.0,,0.0,0.0,0.0,0.0,0.0,0.0,16.183333333333334,14.716666666666667,16.45,11.6,9.233333333333333
"115 Astoria Dr, Savoy, IL 61874",Savoy,61874,1970,3.0,3.0,"$409,900",415800,40.0332,-88.24869,1970,2801,146,SINGLE_FAMILY,161012.0,0.0,,0.0,0.0,0.0,0.0,0.0,0.0,16.283333333333335,14.833333333333334,15.983333333333333,11.133333333333333,9.35
"1004 Cascade Dr, Savoy, IL 61874",Savoy,61874,2451,4.0,5.0,"$536,000",543900,40.04273,-88.24269,2451,3516,151,SINGLE_FAMILY,161012.0,0.0,,0.0,0.0,0.0,1.0,0.0,0.0,15.15,14.483333333333333,14.366666666666667,9.516666666666667,8.983333333333333
"409 Sutton St, Savoy, IL 61874",Savoy,61874,1883,4.0,4.0,"$457,500",465200,40.048527,-88.24454,1883,2644,162,SINGLE_FAMILY,161012.0,3.0,,2.0,0.0,0.0,2.0,0.0,0.0,15.083333333333334,13.883333333333333,14.283333333333333,9.45,8.366666666666667
"1316 Montgomery St, Urbana, IL 61802",Urbana,61802,1301,3.0,4.0,"$235,000",235800,40.102394,-88.17349,1301,2261,43,SINGLE_FAMILY,84683.0,25.0,,0.0,0.0,2.0,1.0,1.0,0.0,12.666666666666666,14.816666666666666,8.633333333333333,9.55,20.183333333333334
"2955 E Stone Creek Blvd, Urbana, IL 61802",Urbana,61802,2549,5.0,5.0,"$630,000",632000,40.091034,-88.168655,2549,3276,47,SINGLE_FAMILY,111250.0,4.0,,3.0,0.0,0.0,0.0,0.0,0.0,14.7,16.283333333333335,10.883333333333333,9.816666666666666,16.483333333333334
"2202 E Delaware Ave, Urbana, IL 61802",Urbana,61802,1402,2.0,3.0,"$170,000",233400,40.099873,-88.17972,1402,2053,47,SINGLE_FAMILY,84683.0,4.0,,1.0,0.0,3.0,3.0,1.0,0.0,12.283333333333333,14.083333333333334,8.016666666666667,7.633333333333334,18.25
"1318 S Smith Rd, Urbana, IL 61802",Urbana,61802,1400,3.0,3.0,"$240,900",241200,40.10212,-88.175735,1400,2381,53,SINGLE_FAMILY,84683.0,4.0,,0.0,0.0,3.0,3.0,1.0,0.0,12.25,14.416666666666666,8.233333333333333,8.65,19.266666666666666
"2009 E Michigan Ave, Urbana, IL 61802",Urbana,61802,1069,1.0,3.0,"$160,000",160600,40.10153,-88.182686,1069,1519,54,SINGLE_FAMILY,55684.0,38.0,,6.0,1.0,4.0,3.0,1.0,0.0,11.35,14.3,7.316666666666666,7.833333333333333,18.466666666666665
"3001 E Stone Creek Blvd, Urbana, IL 61802",Urbana,61802,2540,4.0,5.0,"$649,000",651200,40.090775,-88.16859,2540,3075,60,SINGLE_FAMILY,111250.0,3.0,,3.0,0.0,0.0,0.0,0.0,0.0,14.666666666666666,16.25,10.85,9.766666666666667,16.433333333333334
"3006 E Stillwater Lndg, Urbana, IL 61802",Urbana,61802,1720,4.0,3.0,"$299,999",301100,40.090775,-88.16777,1720,2602,63,SINGLE_FAMILY,111250.0,4.0,,3.0,0.0,0.0,0.0,0.0,0.0,14.283333333333333,16.083333333333332,10.016666666666667,9.633333333333333,16.616666666666667
"3048 E Stillwater Lndg, Urbana, IL 61802",Urbana,61802,1150,2.0,2.0,"$175,000",175900,40.090393,-88.167015,1150,1659,64,CONDO,111250.0,4.0,,3.0,0.0,0.0,0.0,0.0,0.0,14.516666666666667,16.333333333333332,10.25,9.866666666666667,16.866666666666667
"2115 S Stonebrooke Ct, Urbana, IL 61802",Urbana,61802,1283,3.0,3.0,"$325,000",327700,40.090145,-88.16372,1283,1598,74,MULTI_FAMILY,111250.0,3.0,,3.0,0.0,0.0,0.0,0.0,0.0,14.666666666666666,16.25,10.866666666666667,10.883333333333333,16.45
"3031 E Stillwater Lndg, Urbana, IL 61802",Urbana,61802,1292,3.0,3.0,"$292,000",294100,40.089897,-88.16526,1292,1672,75,MULTI_FAMILY,111250.0,4.0,,3.0,0.0,0.0,0.0,0.0,0.0,15.016666666666667,16.6,11.216666666666667,10.516666666666667,16.8
"2203 E Pennsylvania Ave, Urbana, IL 61802",Urbana,61802,1309,2.0,3.0,"$250,000",252100,40.100864,-88.17936,1309,1971,85,SINGLE_FAMILY,84683.0,15.0,,0.0,0.0,3.0,3.0,1.0,0.0,11.483333333333333,14.15,7.45,7.683333333333334,18.316666666666666
"1721 S Stone Creek Blvd, Urbana, IL 61802",Urbana,61802,1760,3.0,3.0,"$405,000",409400,40.09821,-88.177956,1760,2973,90,SINGLE_FAMILY,111250.0,26.0,,0.0,0.0,3.0,2.0,0.0,0.0,13.066666666666666,15.05,9.033333333333333,8.6,17.733333333333334
"2805 Susan Stone Dr, Urbana, IL 61802",Urbana,61802,1538,2.0,3.0,"$276,000",278900,40.08219,-88.18249,1538,2104,96,SINGLE_FAMILY,104500.0,26.0,,2.0,1.0,4.0,1.0,1.0,1.0,12.766666666666667,14.383333333333333,10.316666666666666,8.033333333333333,15.6
"1824 S Stone Creek Blvd, Urbana, IL 61802",Urbana,61802,2544,3.0,4.0,"$509,000",515800,40.09565,-88.18032,2544,3638,113,SINGLE_FAMILY,111250.0,26.0,,3.0,1.0,2.0,2.0,1.0,1.0,13.1,14.9,8.833333333333334,8.45,17.616666666666667
"2004 Trails Dr, Urbana, IL 61802",Urbana,61802,2209,3.0,4.0,"$245,000",253400,40.07713,-88.181145,2209,2990,116,SINGLE_FAMILY,104500.0,10.0,,2.0,1.0,3.0,1.0,1.0,0.0,13.833333333333334,15.466666666666667,11.4,9.1,15.016666666666667
"2213 S Stonebrooke Ct, Urbana, IL 61802",Urbana,61802,1388,2.0,3.0,"$285,000",288100,40.08934,-88.16435,1388,1594,117,MULTI_FAMILY,111250.0,3.0,,3.0,0.0,0.0,0.0,0.0,0.0,14.283333333333333,15.866666666666667,10.466666666666667,10.483333333333333,16.05
"2529 Saint Andrews Rd, Urbana, IL 61802",Urbana,61802,2414,3.0,3.0,"$425,000",429800,40.087715,-88.179,2414,2777,123,SINGLE_FAMILY,111250.0,10.0,,2.0,0.0,4.0,1.0,1.0,1.0,13.883333333333333,15.516666666666667,10.116666666666667,9.15,16.75
"2311 Nugent Cir, Urbana, IL 61802",Urbana,61802,2205,4.0,5.0,"$399,900",404700,40.087727,-88.163574,2205,3423,126,SINGLE_FAMILY,111250.0,3.0,,3.0,0.0,0.0,0.0,0.0,0.0,14.733333333333333,16.316666666666666,10.916666666666666,10.733333333333333,16.5
"501 Luria Ln, Champaign, IL 61822",Champaign,61822,1217,2.0,2.0,"$177,000",210800,40.154175,-88.252266,1217,1647,797,SINGLE_FAMILY,72438.0,11.0,12,3.0,1.0,2.0,1.0,0.0,1.0,13.366666666666667,9.933333333333334,12.666666666666666,15.783333333333333,17.9
"3403 Nobel Dr, Champaign, IL 61822",Champaign,61822,1814,3.0,3.0,"$265,100",297300,40.15544,-88.256996,1814,2536,831,SINGLE_FAMILY,72438.0,11.0,12,3.0,1.0,2.0,1.0,0.0,1.0,13.216666666666667,10.1,12.833333333333334,15.633333333333333,17.05
"409 Krebs Dr, Champaign, IL 61822",Champaign,61822,2358,3.0,4.0,"$321,000",354900,40.153454,-88.25172,2358,2834,837,SINGLE_FAMILY,72438.0,12.0,12,5.0,1.0,2.0,1.0,0.0,1.0,13.166666666666666,9.733333333333333,12.466666666666667,15.583333333333334,17.95
"403 Bardeen Ln, Champaign, IL 61822",Champaign,61822,1458,2.0,3.0,"$276,000",305200,40.151863,-88.25092,1458,2146,848,SINGLE_FAMILY,72438.0,16.0,12,10.0,1.0,0.0,1.0,0.0,1.0,12.266666666666667,8.833333333333334,11.566666666666666,14.683333333333334,17.683333333333334
"708 Doisy Ln, Champaign, IL 61822",Champaign,61822,1175,2.0,2.0,"$192,900",223200,40.150806,-88.255905,1175,1610,851,SINGLE_FAMILY,72438.0,20.0,12,17.0,2.0,2.0,1.0,0.0,3.0,12.333333333333334,8.9,11.65,14.75,17.383333333333333
"407 Krebs Dr, Champaign, IL 61822",Champaign,61822,2126,3.0,4.0,"$310,000",354000,40.153454,-88.25154,2126,2656,860,SINGLE_FAMILY,72438.0,20.0,12,5.0,1.0,2.0,1.0,0.0,1.0,13.1,9.666666666666666,12.416666666666666,15.516666666666667,18.0
"3305 Nobel Dr, Champaign, IL 61822",Champaign,61822,1839,3.0,3.0,"$245,000",279300,40.154724,-88.25698,1839,2591,867,SINGLE_FAMILY,72438.0,12.0,12,6.0,1.0,2.0,1.0,0.0,1.0,13.033333333333333,9.916666666666666,12.65,15.45,16.866666666666667
"406 Corey Ln, Champaign, IL 61822",Champaign,61822,2328,3.0,4.0,"$315,000",357200,40.15158,-88.2511,2328,2779,887,SINGLE_FAMILY,72438.0,11.0,12,12.0,1.0,0.0,1.0,0.0,1.0,12.3,8.866666666666667,11.6,14.716666666666667,18.1
"707 Newton Dr, Champaign, IL 61822",Champaign,61822,1616,3.0,3.0,"$200,000",248900,40.152557,-88.25586,1616,1974,918,SINGLE_FAMILY,72438.0,11.0,12,10.0,1.0,2.0,1.0,0.0,2.0,12.716666666666667,9.583333333333334,12.333333333333334,15.116666666666667,16.533333333333335
"611 Luria Ln, Champaign, IL 61822",Champaign,61822,1227,2.0,2.0,"$184,000",220300,40.15416,-88.25481,1227,1964,951,SINGLE_FAMILY,72438.0,11.0,12,6.0,1.0,2.0,1.0,0.0,1.0,13.416666666666666,10.066666666666666,12.816666666666666,15.833333333333334,17.25
"406 Yalow Dr, Champaign, IL 61822",Champaign,61822,1460,2.0,3.0,"$185,000",236700,40.15537,-88.25157,1460,2298,980,SINGLE_FAMILY,72438.0,7.0,12,2.0,1.0,2.0,1.0,0.0,1.0,13.616666666666667,10.166666666666666,12.916666666666666,16.016666666666666,18.433333333333334
"710 Yalow Dr, Champaign, IL 61822",Champaign,61822,1080,2.0,2.0,"$163,000",200000,40.155327,-88.25608,1080,1772,1029,SINGLE_FAMILY,72438.0,11.0,12,3.0,1.0,2.0,1.0,0.0,1.0,13.366666666666667,10.233333333333333,12.983333333333333,15.783333333333333,17.2
"706 Krebs Dr, Champaign, IL 61822",Champaign,61822,1000,2.0,2.0,"$163,000",198200,40.153866,-88.25569,1000,1724,1033,SINGLE_FAMILY,72438.0,17.0,12,7.0,1.0,2.0,1.0,0.0,1.0,13.25,10.033333333333333,12.783333333333333,15.65,17.066666666666666
"414 Corey Ln, Champaign, IL 61822",Champaign,61822,2562,3.0,5.0,"$335,000",376700,40.151573,-88.25181,2562,2971,1036,SINGLE_FAMILY,72438.0,17.0,12,14.0,1.0,2.0,1.0,0.0,1.0,12.15,8.716666666666667,11.45,14.566666666666666,17.95
"714 Luria Ln, Champaign, IL 61822",Champaign,61822,1818,3.0,4.0,"$240,417",286700,40.15459,-88.25647,1818,2829,1040,SINGLE_FAMILY,72438.0,10.0,12,6.0,1.0,2.0,1.0,0.0,1.0,13.016666666666667,9.883333333333333,12.633333333333333,15.433333333333334,16.833333333333332
"707 Lauterbur Ln, Champaign, IL 61822",Champaign,61822,1040,2.0,2.0,"$167,500",205400,40.15561,-88.255905,1040,1747,1068,SINGLE_FAMILY,72438.0,10.0,12,3.0,1.0,2.0,1.0,0.0,1.0,13.416666666666666,10.3,13.033333333333333,15.833333333333334,17.25
"712 Yalow Dr, Champaign, IL 61822",Champaign,61822,1869,3.0,3.0,"$241,000",282900,40.155323,-88.25626,1869,2567,1084,SINGLE_FAMILY,72438.0,17.0,12,3.0,1.0,2.0,1.0,0.0,1.0,13.316666666666666,10.183333333333334,12.933333333333334,15.733333333333333,17.133333333333333
"510 Lauterbur Ln, Champaign, IL 61822",Champaign,61822,1044,2.0,2.0,"$172,500",180000,40.156105,-88.25301,1044,1798,295,SINGLE_FAMILY,72438.0,8.0,12,2.0,1.0,2.0,1.0,0.0,1.0,13.916666666666666,10.25,13.0,16.333333333333332,17.75
"403 Luria Ln, Champaign, IL 61822",Champaign,61822,1225,2.0,2.0,"$190,000",198500,40.154186,-88.2512,1225,1937,302,SINGLE_FAMILY,72438.0,13.0,12,2.0,1.0,2.0,1.0,0.0,1.0,13.2,9.766666666666667,12.5,15.616666666666667,18.183333333333334
"611 Corey Ln, Champaign, IL 61822",Champaign,61822,1455,2.0,3.0,"$230,000",256800,40.1511,-88.25461,1455,2015,305,SINGLE_FAMILY,72438.0,19.0,12,15.0,2.0,2.0,1.0,0.0,2.0,12.516666666666667,9.083333333333334,11.816666666666666,14.933333333333334,17.383333333333333
"609 Corey Ln, Champaign, IL 61822",Champaign,61822,1027,2.0,2.0,"$173,000",180900,40.151104,-88.254425,1027,1508,306,SINGLE_FAMILY,72438.0,19.0,12,15.0,2.0,2.0,1.0,0.0,2.0,12.466666666666667,9.033333333333333,11.766666666666667,14.883333333333333,17.4
"401 Bardeen Ln, Champaign, IL 61822",Champaign,61822,2414,3.0,4.0,"$337,000",352500,40.151867,-88.25074,2414,2831,307,SINGLE_FAMILY,72438.0,13.0,12,9.0,1.0,0.0,1.0,0.0,1.0,12.283333333333333,8.85,11.6,14.7,17.7
"714 Lauterbur Ln, Champaign, IL 61822",Champaign,61822,1254,2.0,2.0,"$205,000",215400,40.156067,-88.256485,1254,1983,316,SINGLE_FAMILY,72438.0,11.0,12,2.0,1.0,2.0,1.0,0.0,1.0,13.333333333333334,10.216666666666667,12.95,15.75,17.166666666666668
"615 Bardeen Ln, Champaign, IL 61822",Champaign,61822,1604,3.0,4.0,"$253,000",265900,40.151833,-88.255005,1604,2299,319,SINGLE_FAMILY,72438.0,17.0,12,13.0,1.0,2.0,1.0,0.0,2.0,12.683333333333334,9.25,11.983333333333333,15.1,17.116666666666667
"709 Yalow Dr, Champaign, IL 61822",Champaign,61822,1257,2.0,2.0,"$218,000",229400,40.154877,-88.25607,1257,1976,326,SINGLE_FAMILY,72438.0,11.0,12,3.0,1.0,2.0,1.0,0.0,1.0,13.366666666666667,10.233333333333333,12.983333333333333,15.783333333333333,17.2
"605 Lauterbur Ln, Champaign, IL 61822",Champaign,61822,1001,2.0,2.0,"$200,000",210800,40.155624,-88.254295,1001,1726,340,SINGLE_FAMILY,72438.0,10.0,12,2.0,1.0,2.0,1.0,0.0,1.0,13.633333333333333,10.533333333333333,13.266666666666667,16.05,17.466666666666665
"409 Bardeen Ln, Champaign, IL 61822",Champaign,61822,2225,3.0,4.0,"$350,000",370300,40.15186,-88.25146,2225,2719,355,SINGLE_FAMILY,72438.0,12.0,12,12.0,1.0,0.0,1.0,0.0,1.0,12.166666666666666,8.733333333333333,11.483333333333333,14.583333333333334,17.583333333333332
"506 Lauterbur Ln, Champaign, IL 61822",Champaign,61822,1217,2.0,2.0,"$179,900",190000,40.15611,-88.252655,1217,1923,356,SINGLE_FAMILY,72438.0,8.0,12,2.0,1.0,2.0,1.0,0.0,1.0,14.0,10.333333333333334,13.083333333333334,16.416666666666668,17.833333333333332
"712 Newton Dr, Champaign, IL 61822",Champaign,61822,1178,2.0,2.0,"$205,000",216900,40.153004,-88.256226,1178,1613,357,SINGLE_FAMILY,72438.0,8.0,12,10.0,1.0,2.0,1.0,0.0,2.0,12.666666666666666,9.533333333333333,12.283333333333333,15.066666666666666,16.483333333333334
"507 Doisy Ln, Champaign, IL 61822",Champaign,61822,1232,2.0,2.0,"$220,000",232300,40.150364,-88.25308,1232,1691,361,SINGLE_FAMILY,72438.0,13.0,12,17.0,3.0,2.0,1.0,0.0,3.0,11.933333333333334,8.5,11.25,14.35,17.816666666666666
"711 Bardeen Ln, Champaign, IL 61822",Champaign,61822,1078,2.0,2.0,"$179,000",189700,40.151833,-88.25634,1078,1546,375,SINGLE_FAMILY,72438.0,14.0,12,14.0,1.0,2.0,1.0,0.0,2.0,12.95,9.6,12.35,15.366666666666667,16.783333333333335
"702 Bardeen Ln, Champaign, IL 61822",Champaign,61822,1212,2.0,2.0,"$215,000",228000,40.15228,-88.25532,1212,1647,378,SINGLE_FAMILY,72438.0,8.0,12,11.0,1.0,2.0,1.0,0.0,2.0,12.733333333333333,9.3,12.033333333333333,15.15,17.05
"706 Corey Ln, Champaign, IL 61822",Champaign,61822,1116,2.0,2.0,"$177,500",188700,40.151543,-88.255745,1116,1561,405,SINGLE_FAMILY,72438.0,11.0,12,14.0,2.0,2.0,1.0,0.0,2.0,12.8,9.366666666666667,12.116666666666667,15.216666666666667,17.216666666666665
"615 Doisy Ln, Champaign, IL 61822",Champaign,61822,1451,2.0,3.0,"$240,000",255500,40.150345,-88.25487,1451,2032,410,SINGLE_FAMILY,72438.0,21.0,12,18.0,3.0,2.0,1.0,0.0,3.0,12.183333333333334,8.75,11.5,14.6,17.616666666666667
"706 Yalow Dr, Champaign, IL 61822",Champaign,61822,1239,2.0,2.0,"$225,000",239300,40.15533,-88.25572,1239,1952,410,SINGLE_FAMILY,72438.0,11.0,12,3.0,1.0,2.0,1.0,0.0,1.0,13.466666666666667,10.333333333333334,13.083333333333334,15.883333333333333,17.3
"3205 Meridian Dr, Champaign, IL 61822",Champaign,61822,2559,2.0,4.0,"$249,900",266600,40.164356,-88.29967,2559,3100,424,SINGLE_FAMILY,118750.0,11.0,,0.0,0.0,0.0,0.0,0.0,0.0,16.933333333333334,13.433333333333334,15.75,17.933333333333334,17.15
"611 Newton Dr, Champaign, IL 61822",Champaign,61822,1442,2.0,3.0,"$245,000",261500,40.15257,-88.25478,1442,2004,431,SINGLE_FAMILY,72438.0,11.0,12,10.0,1.0,2.0,1.0,0.0,2.0,12.866666666666667,9.283333333333333,12.016666666666667,15.283333333333333,16.683333333333334
"704 Luria Ln, Champaign, IL 61822",Champaign,61822,1221,2.0,2.0,"$203,000",216400,40.1546,-88.25553,1221,1804,445,SINGLE_FAMILY,72438.0,12.0,12,6.0,1.0,2.0,1.0,0.0,1.0,13.3,10.183333333333334,12.916666666666666,15.716666666666667,17.133333333333333
"608 Krebs Dr, Champaign, IL 61822",Champaign,61822,1891,3.0,3.0,"$265,900",283600,40.153877,-88.25444,1891,2329,446,SINGLE_FAMILY,72438.0,12.0,12,6.0,1.0,2.0,1.0,0.0,1.0,13.183333333333334,9.75,12.483333333333333,15.6,17.4
"412 Doisy Ln, Champaign, IL 61822",Champaign,61822,2210,3.0,3.0,"$317,000",340500,40.15084,-88.25162,2210,2605,488,SINGLE_FAMILY,72438.0,12.0,12,15.0,1.0,0.0,1.0,0.0,1.0,11.933333333333334,8.5,11.233333333333333,14.35,17.8
"3610 W Bloomington Rd, Champaign, IL 61822",Champaign,61822,1861,2.0,3.0,"$295,000",319500,40.15629,-88.30554,1861,2415,536,SINGLE_FAMILY,118750.0,0.0,,0.0,0.0,0.0,0.0,0.0,0.0,14.3,10.816666666666666,13.116666666666667,15.3,17.366666666666667
"605 Krebs Dr, Champaign, IL 61822",Champaign,61822,1194,2.0,2.0,"$196,050",216200,40.153427,-88.254265,1194,1628,571,SINGLE_FAMILY,72438.0,16.0,12,8.0,1.0,2.0,1.0,0.0,1.0,13.15,9.716666666666667,12.45,15.566666666666666,17.45
"511 Krebs Dr, Champaign, IL 61822",Champaign,61822,1412,2.0,3.0,"$250,000",273900,40.15344,-88.25315,1412,2047,573,SINGLE_FAMILY,72438.0,13.0,12,6.0,1.0,2.0,1.0,0.0,1.0,12.95,9.516666666666667,12.25,15.366666666666667,17.483333333333334
"506 Yalow Dr, Champaign, IL 61822",Champaign,61822,1040,2.0,2.0,"$179,000",201000,40.155357,-88.25265,1040,1757,644,SINGLE_FAMILY,72438.0,19.0,12,2.0,1.0,2.0,1.0,0.0,1.0,13.566666666666666,10.133333333333333,12.866666666666667,15.983333333333333,18.116666666666667
"712 Krebs Dr, Champaign, IL 61822",Champaign,61822,1800,3.0,3.0,"$245,000",273500,40.15386,-88.25623,1800,2592,662,SINGLE_FAMILY,72438.0,13.0,12,8.0,1.0,2.0,1.0,0.0,1.0,13.1,9.966666666666667,12.716666666666667,15.516666666666667,16.916666666666668
"402 Doisy Ln, Champaign, IL 61822",Champaign,61822,1540,2.0,3.0,"$272,500",302600,40.15085,-88.250725,1540,2213,666,SINGLE_FAMILY,72438.0,19.0,12,15.0,1.0,0.0,1.0,0.0,1.0,12.133333333333333,8.7,11.433333333333334,14.55,18.0
"618 Corey Ln, Champaign, IL 61822",Champaign,61822,1432,2.0,3.0,"$222,500",250600,40.151546,-88.25518,1432,2001,698,SINGLE_FAMILY,72438.0,19.0,12,15.0,1.0,2.0,1.0,0.0,2.0,12.666666666666666,9.216666666666667,11.966666666666667,15.066666666666666,17.3
"2905 Nobel Dr, Champaign, IL 61822",Champaign,61822,1471,2.0,3.0,"$228,000",255700,40.150772,-88.25667,1471,2041,711,SINGLE_FAMILY,72438.0,19.0,12,17.0,2.0,2.0,1.0,0.0,3.0,12.616666666666667,9.183333333333334,11.916666666666666,15.033333333333333,17.183333333333334
"605 Doisy Ln, Champaign, IL 61822",Champaign,61822,1175,2.0,3.0,"$199,900",230600,40.150356,-88.253975,1175,1829,713,SINGLE_FAMILY,72438.0,22.0,12,18.0,3.0,2.0,1.0,0.0,3.0,12.066666666666666,8.633333333333333,11.366666666666667,14.483333333333333,17.8
"3217 Nobel Dr, Champaign, IL 61822",Champaign,61822,1046,2.0,2.0,"$182,000",212100,40.154037,-88.25699,1046,1747,722,SINGLE_FAMILY,72438.0,19.0,12,7.0,1.0,2.0,1.0,0.0,1.0,12.9,9.766666666666667,12.5,15.3,16.716666666666665
"505 Krebs Dr, Champaign, IL 61822",Champaign,61822,2225,3.0,4.0,"$335,000",357300,40.153442,-88.25262,2225,2648,722,SINGLE_FAMILY,72438.0,19.0,12,6.0,1.0,2.0,1.0,0.0,1.0,13.116666666666667,9.683333333333334,12.416666666666666,15.533333333333333,17.666666666666668
"609 Bardeen Ln, Champaign, IL 61822",Champaign,61822,1461,2.0,3.0,"$230,000",257700,40.151836,-88.25444,1461,2017,728,SINGLE_FAMILY,72438.0,17.0,12,13.0,1.0,2.0,1.0,0.0,2.0,12.6,9.166666666666666,11.9,15.016666666666667,17.233333333333334
"709 Lauterbur Ln, Champaign, IL 61822",Champaign,61822,1660,3.0,3.0,"$250,000",277000,40.15561,-88.25609,1660,2431,739,SINGLE_FAMILY,72438.0,10.0,12,3.0,1.0,2.0,1.0,0.0,1.0,13.4,10.266666666666667,13.016666666666667,15.8,17.216666666666665
"602 Krebs Dr, Champaign, IL 61822",Champaign,61822,1811,2.5,3.0,"$210,000",252700,40.15388,-88.25386,1811,2234,769,SINGLE_FAMILY,72438.0,17.0,12,6.0,1.0,2.0,1.0,0.0,1.0,12.783333333333333,9.35,12.1,15.2,17.333333333333332
"702 Corey Ln, Champaign, IL 61822",Champaign,61822,1232,2.0,2.0,"$201,000",229500,40.151543,-88.25537,1232,1669,781,SINGLE_FAMILY,72438.0,17.0,12,15.0,2.0,2.0,1.0,0.0,2.0,12.7,9.266666666666667,12.016666666666667,15.116666666666667,17.266666666666666
"412 Luria Ln, Champaign, IL 61822",Champaign,61822,1440,2.0,3.0,"$241,000",265400,40.15463,-88.2521,1440,2249,789,SINGLE_FAMILY,72438.0,9.0,12,2.0,1.0,2.0,1.0,0.0,1.0,13.416666666666666,9.983333333333333,12.716666666666667,15.833333333333334,17.95
"1709 Briarcliff Dr, Urbana, IL 61802",Urbana,61802,1872,2.0,4.0,"$195,000",195700,40.098522,-88.18767,1872,1975,46,SINGLE_FAMILY,55684.0,3.0,,7.0,1.0,5.0,2.0,3.0,1.0,10.85,12.65,6.583333333333333,6.183333333333334,16.816666666666666
"1001 E Sunnycrest Dr, Urbana, IL 61801",Urbana,61801,1290,3.0,3.0,"$223,750",224700,40.097305,-88.19653,1290,1997,47,SINGLE_FAMILY,51626.0,59.0,,8.0,1.0,5.0,3.0,2.0,1.0,10.133333333333333,11.933333333333334,6.483333333333333,5.466666666666667,16.883333333333333
"1505 Delmont Ct APT 3, Urbana, IL 61801",Urbana,61801,796,1.0,2.0,"$113,000",113300,40.099762,-88.20887,796,1244,50,CONDO,170972.0,68.0,,1.0,0.0,5.0,10.0,1.0,0.0,8.05,10.583333333333334,4.933333333333334,4.133333333333334,15.533333333333333
"2308 S Vine St, Urbana, IL 61801",Urbana,61801,1790,2.0,4.0,"$280,000",281000,40.086494,-88.202255,1790,2660,50,SINGLE_FAMILY,63696.0,31.0,,0.0,0.0,1.0,5.0,0.0,0.0,10.6,12.216666666666667,7.183333333333334,6.15,13.683333333333334
"1311 Brighton Dr, Urbana, IL 61801",Urbana,61801,1377,2.0,3.0,"$140,000",140600,40.092827,-88.19227,1377,1654,50,CONDO,37156.0,47.0,,6.0,1.0,6.0,4.0,2.0,2.0,11.833333333333334,13.666666666666666,8.266666666666667,7.216666666666667,16.333333333333332
"201 E Sherwin Cir, Urbana, IL 61802",Urbana,61802,2372,3.0,3.0,"$407,500",409000,40.07361,-88.205475,2372,3001,53,SINGLE_FAMILY,104500.0,7.0,,0.0,0.0,0.0,3.0,0.0,0.0,11.366666666666667,12.983333333333333,8.716666666666667,6.633333333333334,11.933333333333334
"2019 Burlison Dr, Urbana, IL 61801",Urbana,61801,2300,2.0,4.0,"$307,000",308200,40.092175,-88.2064,2300,2536,53,SINGLE_FAMILY,154570.0,50.0,,0.0,0.0,3.0,6.0,0.0,0.0,9.766666666666667,11.566666666666666,6.983333333333333,5.1,14.716666666666667
"1311 Brighton Dr #0, Urbana, IL 61801",Urbana,61801,1307,2.0,3.0,"$140,000",140600,40.092827,-88.19227,1307,1552,53,CONDO,37156.0,47.0,,6.0,1.0,6.0,4.0,2.0,2.0,11.833333333333334,13.666666666666666,8.266666666666667,7.216666666666667,16.333333333333332
"201 Cattail Ave, Savoy, IL 61874",Savoy,61874,1582,3.0,4.0,"$370,000",371400,40.060696,-88.24776,1582,2433,54,SINGLE_FAMILY,150129.0,10.0,,5.0,0.0,3.0,6.0,2.0,1.0,13.766666666666667,13.3,12.983333333333333,8.133333333333333,8.0
"108 E Mumford Dr, Urbana, IL 61801",Urbana,61801,1298,1.0,3.0,"$154,500",198600,40.0941,-88.20676,1298,1865,55,SINGLE_FAMILY,154570.0,44.0,,0.0,0.0,5.0,8.0,0.0,0.0,8.8,10.616666666666667,6.15,4.15,14.3
"204 W Florida Ave, Urbana, IL 61801",Urbana,61801,1504,2.0,3.0,"$258,500",259300,40.09853,-88.21005,1504,2113,56,SINGLE_FAMILY,170972.0,50.0,,1.0,0.0,5.0,11.0,0.0,0.0,7.683333333333334,9.483333333333333,4.766666666666667,3.033333333333333,14.583333333333334
